[{"city": null, "name": null, "zip": "00000", "url": null, "address2": null, "shortzip": null, "lastupdated": "'2014-10-15", "phone": null, "state": null, "letter": null, "address": null, "lat": 33.5049253, "lng": 134.2689411, "id": null, "__rowid__": "12o2m9"}, {"city": "Enfield ", "name": "A.W. Hastings", "zip": "06082", "url": "http://www.awhastings.com", "address2": null, "shortzip": "6082", "lastupdated": "'2014-07-21", "phone": "(800)394-2728", "state": "CT", "letter": "a", "address": "2 Pearson Way", "lat": 42.0022329, "lng": -72.55827099999999, "id": null, "__rowid__": "11ukpg"}, {"city": "Portland", "name": "AAA Northern New England", "zip": "4104", "url": "http://www.northernnewengland.aaa.com/home.html", "address2": null, "shortzip": "4104", "lastupdated": "'2014-07-21", "phone": "(877) 279-1004", "state": "ME", "letter": null, "address": "63 Marginal Way", "lat": 43.661418, "lng": -70.2658884, "id": null, "__rowid__": "101yiq"}, {"city": "Burlington", "name": "AARP", "zip": "05401", "url": "http://www.aarp.org/states/vt/", "lastmodified": null, "address2": "STE 225", "shortzip": "5401", "lastupdated": "'2014-02-28", "phone": "(802) 951-1307", "state": "VT", "letter": "a", "address": "199 Main St", "lat": 44.475656, "lng": -73.211343, "id": "734", "__rowid__": "cokwr"}, {"city": "Keene", "name": "ADK Cafe", "zip": "12942", "url": "http://www.theadkcafe.com", "lastmodified": null, "address2": null, "shortzip": "12942", "lastupdated": "'2014-02-28", "phone": "(518) 576-9111", "state": "NY", "letter": "a", "address": "2837 NYS 73", "lat": 44.25659290000001, "lng": -73.79335549999999, "id": null, "__rowid__": "12qvsv"}, {"city": "Keene", "name": "ADK Market", "zip": "12942", "url": "http://www.adkmarket.com", "lastmodified": null, "address2": null, "shortzip": "12942", "lastupdated": "'2014-02-28", "phone": "(518) 597-2009", "state": "NY", "letter": "a", "address": "10915 NYS Rt. 9", "lat": 44.25533799999999, "lng": -73.79173899999999, "id": null, "__rowid__": "12sad8"}, {"city": "Bar Harbor", "name": "Acadia School of Traditional Music", "zip": "04609", "url": "http://www.acadiatraditionalschool.com", "lastmodified": null, "address2": null, "shortzip": "4609", "lastupdated": "'2014-02-28", "phone": "(207) 359-2346", "state": "ME", "letter": "a", "address": "29 Cleftstone Road", "lat": 44.387684, "lng": -68.22265399999999, "id": null, "__rowid__": "chk2m"}, {"city": "Colchester", "name": "Albany College of Pharmacy and Health Sciences", "zip": "05446", "url": "http://www.acphs.edu", "lastmodified": null, "address2": "STE 307", "shortzip": "5446", "lastupdated": "'2014-02-28", "phone": "(802) 735-2601", "state": "VT", "letter": "a", "address": "792 College Parkway", "lat": 44.4967386, "lng": -73.1571436, "id": null, "__rowid__": "12cu2x"}, {"city": "Lebanon", "name": "Alice Day Peck Memorial Hospital", "zip": "03766", "url": "http://www.alicedaypeck.org", "lastmodified": null, "address2": null, "shortzip": "3766", "lastupdated": "'2014-02-28", "phone": "(603) 448-7467", "state": "NH", "letter": "a", "address": "125 Mascoma Street", "lat": 43.6391691, "lng": -72.2655111, "id": "883", "__rowid__": "clrrx"}, {"city": "Williston", "name": "AllEarth Renewables", "zip": "05495", "url": "http://www.allearthrenewables.com", "address2": null, "shortzip": "5495", "lastupdated": "'2014-03-01", "phone": "(802) 872-9600", "state": "VT", "letter": "a", "address": "94 Harvest Lane", "lat": 44.449779, "lng": -73.119772, "id": null, "__rowid__": "cssly"}, {"city": "Williston", "name": "Allan H. Day Piano Service", "zip": "05495", "url": "http://www.pianomanday.com", "lastmodified": null, "address2": null, "shortzip": "5495", "lastupdated": "'2014-02-28", "phone": "(802) 879-7338", "state": "VT", "letter": "a", "address": "8 Lincoln Road", "lat": 44.403061, "lng": -73.12647199999999, "id": null, "__rowid__": "cztg3"}, {"city": "Shelburne", "name": "Almartin Volvo", "zip": "05482", "url": "http://www.almartinvolvo.com", "lastmodified": null, "address2": null, "shortzip": "5482", "lastupdated": "'2014-02-28", "phone": "(802) 985-1030", "state": "VT", "letter": "a", "address": " Shelburne Rd.", "lat": 44.4045378, "lng": -73.2172775, "id": "81", "__rowid__": "cvlqs"}, {"city": "Burlington", "name": "American Society of Landscape Architects", "zip": "05401", "url": "http://www.vtasla.org/", "lastmodified": null, "address2": null, "shortzip": "5401", "lastupdated": "'2014-02-28", "phone": "(802) 658-3555", "state": "VT", "letter": "a", "address": "131 Church St", "lat": 44.476761, "lng": -73.212811, "id": "792", "__rowid__": "d9ney"}, {"city": "South Burlington", "name": "Angus Firm (The)", "zip": "05403", "url": "http://www.angusfirm.com", "address2": "Suite U2", "shortzip": "5403", "lastupdated": "'2014-07-29", "phone": "(802) 399-2260", "state": "VT", "letter": "a", "address": "1 Kennedy Drive ", "lat": 44.4525934, "lng": -73.1779257, "id": null, "__rowid__": "104rnk"}, {"city": "Thetford", "name": "Ann Swanson Real Estate", "zip": "05075", "url": "http://www.annswanson.com", "lastmodified": null, "address2": null, "shortzip": "5075", "lastupdated": "'2014-02-28", "phone": "(802) 785-4475", "state": "VT", "letter": "a", "address": "3998 VT 113", "lat": 43.832586, "lng": -72.2477938, "id": null, "__rowid__": "db1zf"}, {"city": "Burlington", "name": "April Cornell", "zip": "05401", "url": "http://www.aprilcornell.com", "address2": null, "shortzip": "5401", "lastupdated": "'2014-06-19", "phone": "(802) 863-0060", "state": "VT", "letter": "a", "address": "131 Battery Street", "lat": 44.47607499999999, "lng": -73.219072, "id": null, "__rowid__": "zcob8"}, {"city": "So Burlington", "name": "Artemis Fitness", "zip": "05403", "url": "http://www.artemisfitnessvt.com", "address2": null, "shortzip": "5403", "lastupdated": "'2014-07-16", "phone": "(802) 448-3769", "state": "VT", "letter": "a", "address": "7 Fayette Drive", "lat": 44.437867, "lng": -73.211933, "id": null, "__rowid__": "zpbf1"}, {"city": "South Burlington", "name": "Audi South Burlington", "zip": "05403", "url": "http://www.audisouthburlington.com/index.htm", "lastmodified": null, "address2": null, "shortzip": "5403", "lastupdated": "'2014-02-28", "phone": "(888) 219-3864", "state": "VT", "letter": "a", "address": "1325 Shelburne Rd", "lat": 44.433587, "lng": -73.21146, "id": "865", "__rowid__": "dp3nl"}, {"city": "Colchester", "name": "BauHeim Builders", "zip": "05446", "url": "http://www.bauheim.com", "address2": null, "shortzip": "5446", "lastupdated": "'2014-05-09", "phone": "(802) 862-5385", "state": "VT", "letter": "b", "address": "67 Spaulding East Shore", "lat": 44.556146, "lng": -73.235049, "id": null, "__rowid__": "z017j"}, {"city": "Plymouth", "name": "Bethany Birches Camp", "zip": "05056", "url": "http://www.bethanybirches.org", "address2": null, "shortzip": "5056", "lastupdated": "'2014-05-09", "phone": "(802) 672-5220", "state": "VT", "letter": "b", "address": "Lynds Hill Road", "lat": 43.5215127, "lng": -72.6933447, "id": null, "__rowid__": "z1frw"}, {"city": "Montpelier", "name": "Bi-state Primary Care Association", "zip": "05602", "url": "http://www.bistatepca.org/", "lastmodified": null, "address2": null, "shortzip": "5602", "lastupdated": "'2014-02-28", "phone": "(802) 229-0002", "state": "VT", "letter": "b", "address": "61 Elm St.", "lat": 44.2616666, "lng": -72.5751446, "id": null, "__rowid__": "dgo93"}, {"city": "North Springfield", "name": "Black River Produce ", "zip": "05150", "url": "http://www.blackriverproduce.com/", "lastmodified": null, "address2": null, "shortzip": "5150", "lastupdated": "'2014-02-28", "phone": "(800) 228-5481", "state": "VT", "letter": "b", "address": "449 River Street", "lat": 43.33086, "lng": -72.514481, "id": "887", "__rowid__": "e7d2q"}, {"city": null, "name": "Blue Cross & Blue Shield", "zip": "00000", "url": "http://www.bcbsvt.com", "lastmodified": null, "address2": null, "shortzip": null, "lastupdated": "'2014-02-28", "phone": null, "state": null, "letter": "b", "address": null, "lat": 33.5049253, "lng": 134.2689411, "id": "90", "__rowid__": "e8rn7"}, {"city": "Burlington", "name": "Bluebird Tavern", "zip": "05401", "url": "http://www.bluebirdtavern.com", "address2": null, "shortzip": "5401", "lastupdated": "'2014-05-09", "phone": "(802) 540-1786", "state": "VT", "letter": "b", "address": "86 St. Paul St.", "lat": 44.47746799999999, "lng": -73.21402499999999, "id": null, "__rowid__": "z8gm1"}, {"city": "Morrisville", "name": "Bournes Energy", "zip": "05331", "url": "http://www.bournesenergy.com/", "lastmodified": null, "address2": null, "shortzip": "5331", "lastupdated": "'2014-02-28", "phone": "(802) 888-2611", "state": "VT", "letter": "b", "address": "72 Lower Main St.", "lat": 44.3816935, "lng": -103.7233674, "id": "861", "__rowid__": "eleqw"}, {"city": "Brattleboro", "name": "Brattleboro Area Chamber of Commerce", "zip": "05301", "url": "http://www.brattleborochamber.com", "lastmodified": null, "address2": null, "shortzip": "5301", "lastupdated": "'2014-02-28", "phone": "(802) 254-4565", "state": "VT", "letter": "b", "address": "180 Main St", "lat": 42.853539, "lng": -72.55882629999999, "id": null, "__rowid__": "eczce"}, {"city": "Brattleboro", "name": "Brattleboro Food Co-op", "zip": "05301", "url": "http://www.brattleborofoodcoop.coop", "lastmodified": null, "address2": null, "shortzip": "5301", "lastupdated": "'2014-02-28", "phone": "(802) 257-0236", "state": "VT", "letter": "b", "address": "2 Main Street", "lat": 42.85016479999999, "lng": -72.55922460000001, "id": null, "__rowid__": "eedwv"}, {"city": "Brattleboro", "name": "Brattleboro Retreat", "zip": "05301", "url": "http://www.brattlebororetreat.org", "lastmodified": null, "address2": null, "shortzip": "5301", "lastupdated": "'2014-02-28", "phone": "(802) 258-3700", "state": "VT", "letter": "b", "address": "75 Linden Street", "lat": 42.859034, "lng": -72.562541, "id": null, "__rowid__": "eh71p"}, {"city": "Brattleboro", "name": "Brattleboro Savings and Loan ", "zip": "05301", "url": "http://www.brattbank.com", "lastmodified": null, "address2": null, "shortzip": "5301", "lastupdated": "'2014-02-28", "phone": "(802) 254-5333", "state": "VT", "letter": "b", "address": "221 Main Street ", "lat": 42.85543, "lng": -72.55913, "id": null, "__rowid__": "etu5e"}, {"city": "Bristol", "name": "Bristol Electronics", "zip": "05443", "url": "http://www.bristolelectronics.com", "lastmodified": null, "address2": null, "shortzip": "5443", "lastupdated": "'2014-02-28", "phone": "(802) 453-2500", "state": "VT", "letter": "b", "address": "600 Sunwood Lane", "lat": 44.14995100000001, "lng": -73.078277, "id": "898", "__rowid__": "ev8pv"}, {"city": "Newfane", "name": "British Clockmaker", "zip": "05345", "url": "http://www.thebritishclockmaker.com", "lastmodified": null, "address2": "49 West St.", "shortzip": "5345", "lastupdated": "'2014-02-28", "phone": "(802) 365-7770", "state": "VT", "letter": "b", "address": " P.O. Box 102", "lat": 41.55169799999999, "lng": -90.415145, "id": null, "__rowid__": "ewna8"}, {"city": null, "name": "Burlington Wine and Food Festival", "zip": "00000", "url": "http://www.burlingtonwineandfoodfestival.com/", "lastmodified": null, "address2": null, "shortzip": null, "lastupdated": "'2014-02-28", "phone": null, "state": null, "letter": "b", "address": null, "lat": 33.5049253, "lng": 134.2689411, "id": "96", "__rowid__": "eo7vq"}, {"city": "Essex Jct", "name": "CVAA", "zip": "05452", "url": "http://www.cvaa.org", "address2": "Suite 201", "shortzip": "5452", "lastupdated": "'2014-02-28", "phone": "(802) 865-0360", "state": "VT", "letter": "c", "address": "76 Pearl St", "lat": 44.4932019, "lng": -73.1193569, "id": null, "__rowid__": "12l9hf"}, {"city": "Montpelier", "name": "Cabot Creamery", "zip": "05602", "url": "http://www.cabotcheese.coop/index.php", "address2": null, "shortzip": "5602", "lastupdated": "'2014-03-18", "phone": "(888) 792-2268", "state": "VT", "letter": "c", "address": "1 Home Farm Way", "lat": 44.244878, "lng": -72.548772, "id": null, "__rowid__": "epmg7"}, {"city": "Brandon", "name": "Cafe Provence", "zip": "05733", "url": "http://www.cafeprovencevt.com/", "lastmodified": null, "address2": null, "shortzip": "5733", "lastupdated": "'2014-02-28", "phone": "(802) 247-9997", "state": "VT", "letter": "c", "address": "11 Center St", "lat": 43.7986393, "lng": -73.08832679999999, "id": "818", "__rowid__": "er10k"}, {"city": "Rutland", "name": "Casella Waste Management", "zip": "05702", "url": "http://www.casella.com", "lastmodified": null, "address2": null, "shortzip": "5702", "lastupdated": "'2014-02-28", "phone": "(888) 485-1469", "state": "VT", "letter": "c", "address": "25 Green Hill Lane", "lat": 43.3689408, "lng": -73.10007519999999, "id": null, "__rowid__": "12v3i2"}, {"city": "Castleton", "name": "Castleton State College", "zip": "05735", "url": "http://www.castleton.edu/", "lastmodified": null, "address2": null, "shortzip": "5735", "lastupdated": "'2014-02-28", "phone": "(802) 468-5611", "state": "VT", "letter": "c", "address": "86 Seminary St", "lat": 43.6102646, "lng": -73.1785428, "id": "631", "__rowid__": "a6oij"}, {"city": "Windsor", "name": "Cedar Hill Continuing Care Community", "zip": "05089", "url": "http://www.cedarhillccc.com/", "lastmodified": null, "address2": null, "shortzip": "5089", "lastupdated": "'2014-02-28", "phone": "(802) 674-6609", "state": "VT", "letter": "c", "address": "92 Cedar Hill Dr", "lat": 43.43566500000001, "lng": -72.3978039, "id": "440", "__rowid__": "a9hnd"}, {"city": "Cresskill", "name": "Central VT Chamber Music Festival", "zip": "07626", "url": "http://www.centralvtchambermusicfest.org/", "lastmodified": null, "address2": null, "shortzip": "7626", "lastupdated": "'2014-02-28", "phone": "(802) 728-6464", "state": "NJ", "letter": "c", "address": "202 Madison Ave", "lat": 40.941224, "lng": -73.971794, "id": "441", "__rowid__": "9znoe"}, {"city": "Rutland", "name": "Chaffe Art Center", "zip": "05701", "url": "http://www.chaffeeartcenter.org/default.htm", "lastmodified": null, "address2": null, "shortzip": "5701", "lastupdated": "'2014-02-28", "phone": "(802) 775-0356", "state": "VT", "letter": "c", "address": "PO Box 1447", "lat": 49.20806169999999, "lng": 16.4538281, "id": "457", "__rowid__": "a128v"}, {"city": "Burlington", "name": "Champlain College", "zip": "05401", "url": "http://www.champlain.edu", "lastmodified": null, "address2": null, "shortzip": "5401", "lastupdated": "'2014-02-28", "phone": "(802) 860-2700", "state": "VT", "letter": "c", "address": " 163 South Willard St.", "lat": 44.475517, "lng": -73.2057109, "id": "823", "__rowid__": "ahx1v"}, {"city": "Essex Junction", "name": "Champlain Obstetrics and Gynocology", "zip": "05452", "url": "http://www.champlainobgyn.com", "lastmodified": null, "address2": null, "shortzip": "5452", "lastupdated": "'2014-02-28", "phone": "(802) 879-1802", "state": "VT", "letter": "c", "address": "55 Main St", "lat": 44.492075, "lng": -73.106064, "id": "106", "__rowid__": "ajbm8"}, {"city": "Shoreham", "name": "Champlain Orchards", "zip": "05770", "url": "http://www.champlainorchards.com/", "lastmodified": null, "address2": null, "shortzip": "5770", "lastupdated": "'2014-02-28", "phone": "(802) 897-2777", "state": "VT", "letter": "c", "address": "2955 Route 74 West", "lat": 43.863651, "lng": -73.34725999999999, "id": null, "__rowid__": "akq6p"}, {"city": "Hinesburg", "name": "Champlain Valley Appraisal Services", "zip": "05461", "url": "http://www.champlainvalleyappraisal.com", "lastmodified": null, "address2": null, "shortzip": "5461", "lastupdated": "'2014-02-28", "phone": "(802) 881-0622", "state": "VT", "letter": "c", "address": "PO Box 623", "lat": 49.20806169999999, "lng": 16.4538281, "id": "504", "__rowid__": "aaw7q"}, {"city": "Randolph", "name": "Chandler Music Hall", "zip": "05060", "url": "http://www.chandler-arts.com", "lastmodified": null, "address2": null, "shortzip": "5060", "lastupdated": "'2014-02-28", "phone": "(802) 728-9878", "state": "VT", "letter": "c", "address": "71-73 Main St", "lat": 43.918831, "lng": -72.668098, "id": null, "__rowid__": "acas7"}, {"city": "So. Burlington ", "name": "Chappell's Florists", "zip": "05403", "url": "http://www.chappellsflorist.com", "lastmodified": null, "address2": null, "shortzip": "5403", "lastupdated": "'2014-02-28", "phone": "(800) 474-4733", "state": "VT", "letter": "c", "address": "1437 Williston Rd", "lat": 44.465832, "lng": -73.167, "id": null, "__rowid__": "af3x1"}, {"city": "Burlington", "name": "City Market", "zip": "05401", "url": "http://www.citymarket.coop/market", "lastmodified": null, "address2": null, "shortzip": "5401", "lastupdated": "'2014-02-28", "phone": "(802) 863-3659", "state": "VT", "letter": "c", "address": "82 South Winooski Ave", "lat": 44.4781819, "lng": -73.21023, "id": "825", "__rowid__": "auk5k"}, {"city": "Claremont", "name": "City of Claremont", "zip": "03743", "url": "http://www.claremontnh.com", "lastmodified": null, "address2": null, "shortzip": "3743", "lastupdated": "'2014-02-28", "phone": "(603) 542-7026   ", "state": "NH", "letter": "c", "address": "14 North St", "lat": 43.3759696, "lng": -72.3387128, "id": null, "__rowid__": "13kdpk"}, {"city": "Claremont", "name": "Claremont Opera House", "zip": "03743", "url": "http://www.claremontoperahouse.com", "lastmodified": null, "address2": null, "shortzip": "3743", "lastupdated": "'2014-02-28", "phone": "(603) 542-0064", "state": "NH", "letter": "c", "address": "PO Box 664", "lat": 45.054528, "lng": -92.952643, "id": "407", "__rowid__": "avyq1"}, {"city": "Boulder", "name": "Clean Energy Collective", "zip": "80301", "url": "http://www.vermontsolargardens.com", "address2": null, "shortzip": "80301", "lastupdated": "'2014-06-19", "phone": "(800) 646-0323", "state": "CO", "letter": "c", "address": "3005 Center Green Dr", "lat": 40.02960400000001, "lng": -105.247477, "id": null, "__rowid__": "ze2vp"}, {"city": "Norwich", "name": "Clean Yield Asset Management", "zip": "05055", "url": "http://www.cleanyield.com/", "lastmodified": null, "address2": "PO Box 874", "shortzip": "5055", "lastupdated": "'2014-02-28", "phone": "(802) 526-2525", "state": "VT", "letter": "c", "address": "16 Beaver Meadow Rd", "lat": 43.715477, "lng": -72.30953199999999, "id": "680", "__rowid__": "anjbj"}, {"city": "Burlington", "name": "Clearbearing", "zip": "05401", "url": "http://clearbearing.com/", "lastmodified": null, "address2": null, "shortzip": "5401", "lastupdated": "'2014-02-28", "phone": "(802) 846-1855", "state": "VT", "letter": "c", "address": "208 Flynn Ave", "lat": 44.4566895, "lng": -73.21841599999999, "id": "639", "__rowid__": "aqcgd"}, {"city": "S. Burlington", "name": "Close To Home", "zip": "05403", "url": "http://www.closetohomevt.com/", "lastmodified": null, "address2": null, "shortzip": "5403", "lastupdated": "'2014-02-28", "phone": "(802) 861-3200", "state": "VT", "letter": "c", "address": "10 Farrell Street", "lat": 44.44599789999999, "lng": -73.2039052, "id": "894", "__rowid__": "b2zk2"}, {"city": "Plattsburgh", "name": "Clute Wealth Management - Plattsburgh, NY", "zip": "12901", "url": "http://www.clutewealthmanagement.com", "lastmodified": null, "address2": null, "shortzip": "12901", "lastupdated": "'2014-02-28", "phone": "(518) 561-5707", "state": "NY", "letter": "c", "address": "152 Tom Miller Rd.", "lat": 44.706703, "lng": -73.491264, "id": "113", "__rowid__": "b4e4j"}, {"city": "South Burlington", "name": "Clute Wealth Management - South Burlington, VT", "zip": "05403", "url": "http://www.clutewealthmanagement.com", "lastmodified": null, "address2": "Suite 202", "shortzip": "5403", "lastupdated": "'2014-02-28", "phone": "(802) 864-5707", "state": "VT", "letter": "c", "address": "1233 Shelburne Rd", "lat": 44.435708, "lng": -73.211057, "id": "418", "__rowid__": "b5sow"}, {"city": "Hanover", "name": "Co-op Food Store", "zip": "03755", "url": "http://www.coopfoodstore.com", "lastmodified": null, "address2": null, "shortzip": "3755", "lastupdated": "'2014-02-28", "phone": "(603) 643-2667", "state": "NH", "letter": "c", "address": "Po Box 633", "lat": 49.20806169999999, "lng": 16.4538281, "id": "119", "__rowid__": "b779d"}, {"city": "Woodstock", "name": "Collective Art of Craft", "zip": "05091", "url": "http://www.collective-theartofcraft.com", "lastmodified": null, "address2": null, "shortzip": "5091", "lastupdated": "'2014-02-28", "phone": "(802) 457-1298", "state": "VT", "letter": "c", "address": "47 Central Street", "lat": 43.625397, "lng": -72.517225, "id": "899", "__rowid__": "ayruv"}, {"city": null, "name": "Comcast", "zip": "00000", "url": "http://www.comcast.com", "lastmodified": null, "address2": null, "shortzip": null, "lastupdated": "'2014-02-28", "phone": null, "state": null, "letter": "c", "address": null, "lat": 33.5049253, "lng": 134.2689411, "id": null, "__rowid__": "b06f8"}, {"city": "Newport", "name": "Community Financial Services Group", "zip": "05858", "url": "http://www.cfsgtrust.com", "lastmodified": null, "address2": "Suite 260", "shortzip": "5858", "lastupdated": "'2014-02-28", "phone": "(877) 334-1677", "state": "VT", "letter": "c", "address": "100 Main Street", "lat": 44.936346, "lng": -72.2085649, "id": null, "__rowid__": "b1kzp"}, {"city": "Morrisville", "name": "Concept2", "zip": "05661", "url": "http://www.concept2.com", "lastmodified": null, "address2": null, "shortzip": "5661", "lastupdated": "'2014-02-28", "phone": "(800) 245-5676", "state": "VT", "letter": "c", "address": "105 Industrial Park Dr.", "lat": 44.570053, "lng": -72.590074, "id": "681", "__rowid__": "bh1a0"}, {"city": "Burlington", "name": "Converse Home", "zip": "05401", "url": "http://www.conversehome.com/", "lastmodified": null, "address2": null, "shortzip": "5401", "lastupdated": "'2014-02-28", "phone": "(802) 862-0401", "state": "VT", "letter": "c", "address": " 272 Church St", "lat": 44.472536, "lng": -73.212125, "id": "116", "__rowid__": "ba0fz"}, {"city": "Morrisville", "name": "Copley Health Systems", "zip": "05661", "url": "http://www.copleyhealthsystems.org/", "lastmodified": null, "address2": null, "shortzip": "5661", "lastupdated": "'2014-02-28", "phone": "(802) 888-8888", "state": "VT", "letter": "c", "address": "528 Washington Hwy", "lat": 44.553619, "lng": -72.591415, "id": "117", "__rowid__": "bbf0c"}, {"city": "Brattleboro", "name": "Costello Valente and Gentry", "zip": "05301", "url": "http://wwwcvglawoffice.com", "address2": null, "shortzip": "5301", "lastupdated": "'2014-06-26", "phone": "(802) 257-5533", "state": "VT", "letter": "c", "address": "51 Putney Rd", "lat": 42.85708, "lng": -72.55941, "id": null, "__rowid__": "zmia7"}, {"city": "Burlington", "name": "Curtis Lumber", "zip": "05401", "url": "http://www.curtislumber.com/", "lastmodified": null, "address2": null, "shortzip": "5401", "lastupdated": "'2014-02-28", "phone": "(802) 651-6500", "state": "VT", "letter": "c", "address": "315 Pine St", "lat": 44.4712536, "lng": -73.2160213, "id": "840", "__rowid__": "bpgoi"}, {"city": "Burlington", "name": "Danforth Pewter", "zip": "05401", "url": "http://www.danforthpewter.com", "address2": null, "shortzip": "5401", "lastupdated": "'2014-02-28", "phone": "(802) 860-7175", "state": "VT", "letter": "d", "address": "111 Church St", "lat": 44.477336, "lng": -73.212771, "id": "443", "__rowid__": "c23sb"}, {"city": "Williston", "name": "Department of Health Access", "zip": "05495", "url": "http://www.vermonthealthconnect.gov", "address2": null, "shortzip": "5495", "lastupdated": "'2014-02-28", "phone": "(802) 879-5900", "state": "VT", "letter": "d", "address": "312 Hurricane Lane", "lat": 44.435907, "lng": -73.109167, "id": null, "__rowid__": "bxw30"}, {"city": "Burlington", "name": "Dinse, Knapp and McAndrew, P.C.", "zip": "05402", "url": "http://www.dinse.com/", "address2": null, "shortzip": "5402", "lastupdated": "'2014-02-28", "phone": "(802) 864-5751", "state": "VT", "letter": "d", "address": "209 Battery St", "lat": 44.4738615, "lng": -73.21887679999999, "id": "444", "__rowid__": "bzanh"}, {"city": "Burlington", "name": "Downs Rachlin & Martin", "zip": "05402", "url": "http://www.drm.com", "address2": "P.O. Box 190", "shortzip": "5402", "lastupdated": "'2014-02-28", "phone": "(802) 863-2375", "state": "VT", "letter": "d", "address": " 199 Main St.", "lat": 44.475656, "lng": -73.211343, "id": "127", "__rowid__": "cdcbn"}, {"city": "Rutland", "name": "Downtown Rutland Partnership", "zip": "05701", "url": "http://www.rutlanddowntown.com", "address2": null, "shortzip": "5701", "lastupdated": "'2014-02-28", "phone": "(802) 773-9380", "state": "VT", "letter": "d", "address": "48 Merchants Row", "lat": 43.60805149999999, "lng": -72.980479, "id": null, "__rowid__": "12xwmw"}, {"city": "Colchester", "name": "Dr. Albert Hardy", "zip": "05446", "url": "http://www.vermontoralsurgery.com", "address2": "Ste. 307", "shortzip": "5446", "lastupdated": "'2014-02-28", "phone": "(802) 655-5090", "state": "VT", "letter": "d", "address": " 125 College Parkway", "lat": 44.4931461, "lng": -73.16827219999999, "id": "158", "__rowid__": "ceqw0"}, {"city": "Stowe", "name": "Dr. Robert C. Bauman Eye Care", "zip": "05672", "url": "http://33", "address2": null, "shortzip": "5672", "lastupdated": "'2014-09-26", "phone": "(802) 253-6322", "state": "VT", "letter": "d", "address": "166 South Main St", "lat": 44.464073, "lng": -72.69001800000001, "id": null, "__rowid__": "12mo1s"}, {"city": "Burlington", "name": "Dunkiel Saunders Elliott Raubvogel & Hand", "zip": "05402", "url": "http://www.dunkielsaunders.com", "address2": null, "shortzip": "5402", "lastupdated": "'2014-03-18", "phone": "(802) 860-1003", "state": "VT", "letter": "d", "address": "PO Box 545", "lat": 42.237048, "lng": -72.71537099999999, "id": null, "__rowid__": "12mo1s"}, {"city": "South Burlington", "name": "Earl's Cyclery", "zip": "05403", "url": "http://earlsbikes.com/", "address2": null, "shortzip": "5403", "lastupdated": "'2014-02-28", "phone": "(802) 864-9197", "state": "VT", "letter": "e", "address": "2500 Williston Rd", "lat": 44.459057, "lng": -73.144173, "id": "763", "__rowid__": "c94mc"}, {"city": "Middlebury", "name": "Eastview at Middlebury", "zip": "05753", "url": "http://www.eastviewatmiddlebury.com/", "address2": null, "shortzip": "5753", "lastupdated": "'2014-02-28", "phone": "(802) 388-0303", "state": "VT", "letter": "e", "address": "115 Porter Ave", "lat": 43.999714, "lng": -73.168526, "id": "493", "__rowid__": "caj6t"}, {"city": "Middlebury", "name": "Edgewater Gallery", "zip": "05753", "url": "http://www.edgewatergallery-vt.com", "address2": null, "shortzip": "5753", "lastupdated": "'2014-02-28", "phone": "(802) 458-0098", "state": "VT", "letter": "e", "address": "1 Mill St.", "lat": 44.013157, "lng": -73.169472, "id": "826", "__rowid__": "11rrkm"}, {"city": "Williston", "name": "Edgeworks Display", "zip": "05446", "url": "http://www.edgeworksdisplay.com", "address2": null, "shortzip": "5446", "lastupdated": "'2014-02-28", "phone": "(888) 723-3746", "state": "VT", "letter": "e", "address": "466 Shunpike Road", "lat": 44.452011, "lng": -73.13461699999999, "id": "132", "__rowid__": "hodi3"}, {"city": "Burlington", "name": "Efficiency Vermont", "zip": "05401", "url": "http://www.efficiencyvermont.com", "address2": null, "shortzip": "5401", "lastupdated": "'2014-02-28", "phone": "(802) 658-6060", "state": "VT", "letter": "e", "address": null, "lat": 33.5049253, "lng": 134.2689411, "id": "862", "__rowid__": "hps2g"}, {"city": "Bethel", "name": "Ellis Music Company", "zip": "05032", "url": "http://www.ellismusic.com/", "address2": null, "shortzip": "5032", "lastupdated": "'2014-02-28", "phone": "(802) 234-6400", "state": "VT", "letter": "e", "address": "1709 VT Route 107, PO Box 437", "lat": 43.8325468, "lng": -72.6377984, "id": "135", "__rowid__": "hhcny"}, {"city": "Troy", "name": "Emma Willard School", "zip": "12180", "url": "http://www.emmawillard.org", "address2": null, "shortzip": "12180", "lastupdated": "'2014-02-28", "phone": "(518) 833-1300", "state": "NY", "letter": "e", "address": "285 Pawling Ave", "lat": 42.71337, "lng": -73.661896, "id": null, "__rowid__": "12toxp"}, {"city": "Burlington", "name": "Engineering Ventures", "zip": "05401", "url": "http://www.engineeringventures.com", "address2": "Suite 2A", "shortzip": "5401", "lastupdated": "'2014-08-20", "phone": "(802) 863-6225", "state": "VT", "letter": "e", "address": "208 Flynn Ave", "lat": 44.4566895, "lng": -73.21841599999999, "id": null, "__rowid__": "10d73u"}, {"city": "Essex Junction", "name": "Essex CHIPS", "zip": "05452", "url": "http://wwwlessexchips.org", "address2": null, "shortzip": "5452", "lastupdated": "'2014-09-17", "phone": "(802) 878-6982", "state": "VT", "letter": "e", "address": "2 Lincoln Street", "lat": 44.4906201, "lng": -73.1112026, "id": null, "__rowid__": "10bsjh"}, {"city": "South Burlington ", "name": "Eternity Web", "zip": "05403", "url": "http://www.eternitymarketing.com", "address2": null, "shortzip": "5403", "lastupdated": "'2014-09-16", "phone": "(802) 862-2000", "state": "vt", "letter": "e", "address": "1340 Williston Road", "lat": 44.46708, "lng": -73.1700199, "id": null, "__rowid__": "10adz0"}, {"city": "Claremont", "name": "Everything But Anchovies", "zip": "03743", "url": "http://www.ebas.com", "address2": null, "shortzip": "3743", "lastupdated": "'2014-02-28", "phone": "(603) 643-6135", "state": "NH", "letter": "e", "address": "118 Grissom Lane", "lat": 43.3408714, "lng": -72.3783825, "id": null, "__rowid__": "12o2m9"}, {"city": "Burlington", "name": "Evolution Physical Therapy and Yoga", "zip": "00000", "url": "http://www.evolutionvt.com", "address2": null, "shortzip": null, "lastupdated": "'2014-02-28", "phone": "(802) 842-9642", "state": "VT", "letter": "e", "address": "20 Kilburn St", "lat": 42.564084, "lng": -71.727126, "id": null, "__rowid__": "13iz57"}, {"city": "St. Johnsbury", "name": "Fairbanks Museum and Planetarium", "zip": "05819", "url": "http://www.fairbanksmuseum.org", "address2": null, "shortzip": "5819", "lastupdated": "'2014-02-28", "phone": "(802) 748-2372", "state": "VT", "letter": "f", "address": "1302 Main St", "lat": 44.420041, "lng": -72.019762, "id": null, "__rowid__": "hzm1f"}, {"city": "South Burlington", "name": "Fairpoint Communications", "zip": "05403", "url": "http://www.fairpoint.com/", "address2": null, "shortzip": "5403", "lastupdated": "'2014-02-28", "phone": "(866) 984-4001", "state": "VT", "letter": "f", "address": "800 Hinesburg Rd", "lat": 44.446389, "lng": -73.156082, "id": "492", "__rowid__": "i2f69"}, {"city": "Burlington", "name": "Farmhouse Tap & Grill", "zip": "05401", "url": "http://www.farmhousetg.com/", "address2": null, "shortzip": "5401", "lastupdated": "'2014-02-28", "phone": "(802) 859-0888", "state": "VT", "letter": "f", "address": "160 Bank St", "lat": 44.478403, "lng": -73.21330499999999, "id": "683", "__rowid__": "hvec4"}, {"city": "Stowe", "name": "Ferro Estate and Custom Jewelry", "zip": "05672", "url": "http://www.ferrojewelers.com", "address2": null, "shortzip": "5672", "lastupdated": "'2014-02-28", "phone": "(802)253-3033", "state": "VT", "letter": "f", "address": "91 Main St", "lat": 44.465488, "lng": -72.68564599999999, "id": null, "__rowid__": "11vz9x"}, {"city": "South Burlington", "name": "Fleischer Jacobs Group", "zip": "05407", "url": "http://www.fjgfinancial.com", "address2": null, "shortzip": "5407", "lastupdated": "'2014-02-28", "phone": "(802) 865-5000", "state": "VT", "letter": "f", "address": "PO Box 2343", "lat": 49.20806169999999, "lng": 16.4538281, "id": "409", "__rowid__": "iaukr"}, {"city": "Burlington", "name": "Fletcher Allen Health Care", "zip": "05401", "url": "http://www.fletcherallen.org", "address2": null, "shortzip": "5401", "lastupdated": "'2014-02-28", "phone": "(802) 847-2886", "state": "VT", "letter": "f", "address": "111 Colchester Ave.", "lat": 44.4796733, "lng": -73.19404399999999, "id": "138", "__rowid__": "i81fx"}, {"city": "Sharon", "name": "Flock Dance Troupe", "zip": "05065", "url": "http://www.flockdance.org/", "address2": null, "shortzip": "5065", "lastupdated": "'2014-02-28", "phone": "(802) 765-4454", "state": "VT", "letter": "f", "address": "139 Star Mountain Rd", "lat": 43.819007, "lng": -72.385778, "id": "586", "__rowid__": "ikojm"}, {"city": "Williston", "name": "Flooring America", "zip": "05495", "url": "http://www.flooringamericavt.com", "address2": null, "shortzip": "5495", "lastupdated": "'2014-09-29", "phone": "(802) 735-1778", "state": "VT", "letter": "f", "address": "800 Marshall Ave", "lat": 44.445592, "lng": -73.127562, "id": null, "__rowid__": "10snch"}, {"city": "Winooski", "name": "Fluid Bar Service", "zip": "05404", "url": "http://www.fluidbarservice.com", "address2": null, "shortzip": "5404", "lastupdated": "'2014-02-28", "phone": "(802) 233-5928", "state": "VT", "letter": "f", "address": "30 Main St", "lat": 44.4905199, "lng": -73.1866749, "id": "140", "__rowid__": "inhog"}, {"city": "Burlington", "name": "Flynn Theatre", "zip": "05401", "url": "http://www.flynncenter.org", "address2": null, "shortzip": "5401", "lastupdated": "'2014-03-06", "phone": "(802)863-5966", "state": "VT", "letter": "f", "address": " 153 Main St.", "lat": 44.475682, "lng": -73.2131557, "id": null, "__rowid__": "hodi3"}, {"city": "Peterborough", "name": "Froling Energy", "zip": "03458", "url": "http://www.frolingenergy.com", "address2": null, "shortzip": "3458", "lastupdated": "'2014-06-16", "phone": "(603) 924-1001", "state": "NH", "letter": "f", "address": "19 Grove Street", "lat": 42.8768505, "lng": -71.9506837, "id": "141", "__rowid__": "hps2g"}, {"city": "Essex", "name": "Full Circle Gardens", "zip": "05452", "url": "http://www.fullcirclegardens.com/", "address2": null, "shortzip": "5452", "lastupdated": "'2014-02-28", "phone": "(802) 879-1919", "state": "VT", "letter": "f", "address": "68 Brigham Hill Rd", "lat": 44.541676, "lng": -73.081604, "id": "142", "__rowid__": "hr6mx"}, {"city": "Shelburne", "name": "Furchgott Sourdiffe Gallery", "zip": "05482", "url": "http://www.fsgallery.com", "address2": null, "shortzip": "5482", "lastupdated": "'2014-02-28", "phone": "(802)985-3848", "state": "VT", "letter": "f", "address": "86 Falls Road", "lat": 44.379463, "lng": -73.22726399999999, "id": "863", "__rowid__": "12toxp"}, {"city": "Burlington", "name": "Gallagher Flynn & Company, LLP", "zip": "05402", "url": "http://www.gfc.com", "address2": null, "shortzip": "5402", "lastupdated": "'2014-02-28", "phone": "(802) 863-1331", "state": "VT", "letter": "g", "address": " 77 College St.", "lat": 44.4767617, "lng": -73.2168846, "id": "879", "__rowid__": "hy7gy"}, {"city": "Burlington", "name": "Gardener's Supply", "zip": "05401", "url": "http://www.gardeners.com", "address2": null, "shortzip": "5401", "lastupdated": "'2014-02-28", "phone": "(888) 833-1412", "state": "VT", "letter": "g", "address": "128 Intervale Rd.", "lat": 44.4960155, "lng": -73.2070327, "id": "148", "__rowid__": "10d73u"}, {"city": "Randolph", "name": "Gifford Medical Center", "zip": "05060", "url": "http://www.giffordmed.org/", "address2": null, "shortzip": "5060", "lastupdated": "'2014-02-28", "phone": "(802) 728-7000", "state": "VT", "letter": "g", "address": "44 South Main St", "lat": 43.916904, "lng": -72.665306, "id": "491", "__rowid__": "10bsjh"}, {"city": "Glens Falls", "name": "Glens Falls Symphony ", "zip": "02801", "url": "http://www.gfso.org/", "address2": null, "shortzip": "2801", "lastupdated": "'2014-02-28", "phone": "(518) 793-1348", "state": "NY", "letter": "g", "address": "PO Box 2036 ", "lat": 49.20806169999999, "lng": 16.4538281, "id": null, "__rowid__": "12o2m9"}, {"city": "Montpelier", "name": "Go! Vermont", "zip": "05633", "url": "http://www.connectingcommuters.org", "address2": null, "shortzip": "5633", "lastupdated": "'2014-02-28", "phone": "(800) 865-7433", "state": "VT", "letter": "g", "address": "1 national Life Drive", "lat": 44.2560508, "lng": -72.584543, "id": null, "__rowid__": "10adz0"}, {"city": "Burlington", "name": "Good News Garage", "zip": "05401", "url": "http://www.goodnewsgarage.org", "address2": null, "shortzip": "5401", "lastupdated": "'2014-02-28", "phone": "(877) GIVE-AUT0", "state": "VT", "letter": "g", "address": "331 North Winooski", "lat": 44.4887088, "lng": -73.20697539999999, "id": "819", "__rowid__": "13iz57"}, {"city": "Williston", "name": "Gordon's Window Decor", "zip": "05495", "url": "http://gordonswindowdecor.com/", "address2": null, "shortzip": "5495", "lastupdated": "'2014-02-28", "phone": "(802) 655-7777", "state": "VT", "letter": "g", "address": "8 Leroy Rd", "lat": 44.4495689, "lng": -73.131294, "id": "820", "__rowid__": "hzm1f"}, {"city": "Waterbury Center", "name": "Green Mountain Camera", "zip": "05677", "url": "http://www.gmcamera.com", "address2": null, "shortzip": "5677", "lastupdated": "'2014-02-28", "phone": "(802) 244-0882", "state": "VT", "letter": "g", "address": "2635 Waterbury Stowe Road", "lat": 44.3688569, "lng": -72.72850369999999, "id": null, "__rowid__": "i2f69"}, {"city": "Waterbury Center", "name": "Green Mountain Club", "zip": "05677", "url": "http://www.greenmountainclub.org", "address2": null, "shortzip": "5677", "lastupdated": "'2014-02-28", "phone": "(802) 244-7037", "state": "VT", "letter": "g", "address": "4711 Waterbury Stowe Road", "lat": 44.3970569, "lng": -72.7194435, "id": "153", "__rowid__": "hvec4"}, {"city": null, "name": "Green Mountain Opera Festival", "zip": "00000", "url": "http://www.greenmountainoperafestival.com", "address2": null, "shortzip": null, "lastupdated": "'2014-02-28", "phone": null, "state": null, "letter": "g", "address": null, "lat": 33.5049253, "lng": 134.2689411, "id": "556", "__rowid__": "11vz9x"}, {"city": null, "name": "Green Mountain Power", "zip": "00000", "url": "http://www.greenmountainpower.biz", "address2": null, "shortzip": null, "lastupdated": "'2014-02-28", "phone": "(888) 835-4672", "state": null, "letter": "g", "address": null, "lat": 33.5049253, "lng": 134.2689411, "id": null, "__rowid__": "iaukr"}, {"city": null, "name": "Green Mountain Rug Hooking Guild", "zip": "00000", "url": "http://www.gmrhg.org", "address2": null, "shortzip": null, "lastupdated": "'2014-09-29", "phone": null, "state": null, "letter": "g", "address": null, "lat": 33.5049253, "lng": 134.2689411, "id": null, "__rowid__": "i81fx"}, {"city": "Greensboro", "name": "Greensboro Arts Alliance", "zip": "05841", "url": "http://www.greensboroartsalliance.org", "address2": null, "shortzip": "5841", "lastupdated": "'2014-02-28", "phone": "(802) 533-7487", "state": "VT", "letter": "g", "address": "PO Box 304", "lat": 49.20806169999999, "lng": 16.4538281, "id": "155", "__rowid__": "ikojm"}, {"city": "N Ferrisburgh", "name": "Greenworks - VT Nursery and Landscape Association", "zip": "05473", "url": "http://www.greenworksvt.org/", "address2": null, "shortzip": "5473", "lastupdated": "'2014-02-28", "phone": "(802) 425-5117", "state": "VT", "letter": "g", "address": "PO Box 92", "lat": 49.20806169999999, "lng": 16.4538281, "id": "156", "__rowid__": "inhog"}, {"city": "Montpelier", "name": "Guardian Ad Litem", "zip": "05602", "url": "http://www.vermontjudiciary.org", "address2": "109 State St.", "shortzip": "5602", "lastupdated": "'2014-02-28", "phone": "(802) 828-0625", "state": "VT", "letter": "g", "address": "Supreme Court Bldg", "lat": 44.261733, "lng": -72.579768, "id": "159", "__rowid__": "10snch"}, {"city": "Reading", "name": "Hall Art Foundation", "zip": "05062", "url": "http://www.hallartfoundation.org", "address2": null, "shortzip": "5062", "lastupdated": "'2014-05-09", "phone": "(802) 952-1056", "state": "VT", "letter": "h", "address": "551 VT Route 106", "lat": 43.4520247, "lng": -72.53789069999999, "id": null, "__rowid__": "iow8x"}, {"city": "So. Burlington", "name": "Healthy Living Market", "zip": "05403", "url": "http://www.healthylivingmarket.com", "address2": null, "shortzip": "5403", "lastupdated": "'2014-02-28", "phone": "(802) 863-2569", "state": "VT", "letter": "h", "address": " 4 Market St.", "lat": 44.466119, "lng": -73.178977, "id": "161", "__rowid__": "10r8s0"}, {"city": "Stowe", "name": "Helen Day Arts Center", "zip": "05802", "url": "http://www.helenday.com", "address2": null, "shortzip": "5802", "lastupdated": "'2014-02-28", "phone": "(802) 253-8358", "state": "VT", "letter": "h", "address": "PO Box 411", "lat": 49.20806169999999, "lng": 16.4538281, "id": null, "__rowid__": "z9v6e"}, {"city": "South Hero", "name": "Hero's Welcome", "zip": "05486", "url": "http://www.heroswelcome.com", "address2": null, "shortzip": "5486", "lastupdated": "'2014-02-28", "phone": "(802) 372-4161", "state": "VT", "letter": "h", "address": "3537 US Route 2", "lat": 44.9652934, "lng": -73.29406809999999, "id": "795", "__rowid__": "ihves"}, {"city": "South Burlington", "name": "Higher Ground/Crothers Entertainment", "zip": "05403", "url": "http://www.highergroundmusic.com", "address2": null, "shortzip": "5403", "lastupdated": "'2014-02-28", "phone": "(802) 735-0966", "state": "VT", "letter": "h", "address": "1214 Williston Road", "lat": 44.468887, "lng": -73.17564, "id": null, "__rowid__": "x8tsa"}, {"city": "Hanover", "name": "Hopkins Center", "zip": "03755", "url": "http://www.hop.dartmouth.edu", "address2": "Dartmouth College", "shortzip": "3755", "lastupdated": "'2014-02-28", "phone": "(603) 646-2422", "state": "NH", "letter": "h", "address": " 6041 Lower Level, Wilson Hall", "lat": 35.6782927, "lng": -78.1889826, "id": null, "__rowid__": "irpfj"}, {"city": "Charlotte", "name": "Horsford  Nursery", "zip": "05446", "url": "http://www.horsfordnursery.com", "address2": null, "shortzip": "5446", "lastupdated": "'2014-04-10", "phone": "(802) 425-2811", "state": "VT", "letter": "h", "address": "2111 Greenbush Rd", "lat": 44.321487, "lng": -73.249352, "id": "167", "__rowid__": "it3zw"}, {"city": "Fayston", "name": "Hot Betty BBQ", "zip": "05673", "url": "http://www.hotbettybbq.com/", "address2": null, "shortzip": "5673", "lastupdated": "'2014-02-28", "phone": "(802) 496-3377", "state": "VT", "letter": "h", "address": "375 Stagecoach Rd", "lat": 44.202396, "lng": -72.86865999999999, "id": null, "__rowid__": "iuikd"}, {"city": "Burlington", "name": "Hotel Vermont", "zip": "05401", "url": "http://www.hotelvt.com", "address2": null, "shortzip": "5401", "lastupdated": "'2014-02-28", "phone": null, "state": "VT", "letter": "h", "address": "41 Cherry Street", "lat": 44.4791612, "lng": -73.21673179999999, "id": null, "__rowid__": "j75o2"}, {"city": "Montpelier", "name": "Hunger Mountain Co-Op", "zip": "05602", "url": "http://www.hungermountain.com", "address2": null, "shortzip": "5602", "lastupdated": "'2014-02-28", "phone": "(802) 223-8000", "state": "VT", "letter": "h", "address": " 623 Stone Cutters Way", "lat": 44.253137, "lng": -72.571691, "id": null, "__rowid__": "130prq"}, {"city": "Hanover", "name": "ILEAD -Institute for Lifelong Education at Dartmouth", "zip": "03755", "url": "http://www.dartmouth.edu/ilead", "address2": null, "shortzip": "3755", "lastupdated": "'2014-02-28", "phone": "(603) 646-0154", "state": "NH", "letter": "i", "address": "10 Hilton Field Road", "lat": 43.7126935, "lng": -72.2858835, "id": null, "__rowid__": "j8k8j"}, {"city": "Hanover", "name": "Inner Asia Rugs", "zip": "00000", "url": "http://www.innerasiarugs.com", "address2": null, "shortzip": null, "lastupdated": "'2014-02-28", "phone": "(603) 645-7847", "state": "NH", "letter": "i", "address": "15 S. Main St", "lat": 44.4757319, "lng": -73.219152, "id": "830", "__rowid__": "j9ysw"}, {"city": "Holyoke", "name": "Iron Horse Entertainment", "zip": "01041", "url": "http://www.iheg.com", "address2": null, "shortzip": "1041", "lastupdated": "'2014-02-28", "phone": "(413) 586-2632", "state": "MA", "letter": "i", "address": null, "lat": 33.5049253, "lng": 134.2689411, "id": null, "__rowid__": "jbddd"}, {"city": "New York", "name": "JF Foundation", "zip": "10018", "url": null, "address2": null, "shortzip": "10018", "lastupdated": "'2014-02-28", "phone": "(212) 766-4528", "state": "NY", "letter": "j", "address": "315 W. 36th St 4th Fl", "lat": 40.755322, "lng": -73.9932872, "id": null, "__rowid__": "j4cj8"}, {"city": "Greensboro Bend", "name": "Jasper Hill Farm", "zip": "05842", "url": "http://www.jasperhillfarm.com", "address2": null, "shortzip": "5842", "lastupdated": "'2014-06-25", "phone": "(802) 533-2566", "state": "VT", "letter": "j", "address": "884 Garven Hill Rd", "lat": 44.5882507, "lng": -72.2703306, "id": "526", "__rowid__": "12h1s4"}, {"city": "Jay", "name": "Jay Peak Resort", "zip": "05859", "url": "http://www.jaypeakresort.com/", "address2": null, "shortzip": "5859", "lastupdated": "'2014-02-28", "phone": "(802) 988-2611", "state": "VT", "letter": "j", "address": "830 Jay Peak Rd", "lat": 44.93722469999999, "lng": -72.5001352, "id": "831", "__rowid__": "136c1e"}, {"city": "Hanover", "name": "John Ring, CPA", "zip": "03755", "url": null, "address2": null, "shortzip": "3755", "lastupdated": "'2014-04-10", "phone": "(802) 785-4918", "state": "NH", "letter": "j", "address": "85 South Main St", "lat": 43.699059, "lng": -72.29018289999999, "id": "169", "__rowid__": "j5r3p"}, {"city": "South Burlington", "name": "Johnson Family Foundation", "zip": "05403", "url": "http://www.jffnd.org/", "address2": null, "shortzip": "5403", "lastupdated": "'2014-02-28", "phone": "(802) 287-9389", "state": "VT", "letter": "j", "address": "2540 Hampshire Hollow Rd", "lat": 43.553196, "lng": -73.157043, "id": null, "__rowid__": "jie7e"}, {"city": "Burlington", "name": "Johnson Law Group", "zip": "05401", "url": "http://www.burlingtonvtlawfirm.com", "address2": null, "shortzip": "5401", "lastupdated": "'2014-02-28", "phone": "(802) 297-7511", "state": "VT", "letter": "j", "address": "77 College Street", "lat": 44.4767617, "lng": -73.2168846, "id": null, "__rowid__": "10itdi"}, {"city": "Johnson", "name": "Johnson State College", "zip": "05656", "url": "http://www.jsc.vsc.edu", "address2": null, "shortzip": "5656", "lastupdated": "'2014-02-28", "phone": "(800) 635-2356", "state": "VT", "letter": "j", "address": " 337 College Hill", "lat": 44.641575, "lng": -72.671707, "id": null, "__rowid__": "jmlwp"}, {"city": "Saxtons River", "name": "Julie Moir Messervy Design", "zip": "05154", "url": "http://www.jmmds.com", "address2": null, "shortzip": "5154", "lastupdated": "'2014-02-28", "phone": "(802) 869-1470", "state": "VT", "letter": "j", "address": "PO Box 629", "lat": 49.20806169999999, "lng": 16.4538281, "id": "847", "__rowid__": "jcrxq"}, {"city": "Burlington", "name": "Katharine Monstream Studio", "zip": "05401", "url": "http://www.kmmstudio.com", "address2": null, "shortzip": "5401", "lastupdated": "'2014-02-28", "phone": "(802) 862-8752", "state": "VT", "letter": "k", "address": "1 Main Street", "lat": 44.4757869, "lng": -73.2195069, "id": null, "__rowid__": "je6i7"}, {"city": "Shelburne", "name": "Kilawatt Technologies", "zip": "05482", "url": "http://www.kilawatt.com", "address2": "PO Box 794", "shortzip": "5482", "lastupdated": "'2014-02-28", "phone": "(802) 985-2285", "state": "VT", "letter": "k", "address": "5138 Shelburne Road", "lat": 44.382801, "lng": -73.227676, "id": "733", "__rowid__": "zfhg2"}, {"city": "Barnet", "name": "Kingdom County Productions", "zip": "05821", "url": "http://www.kingdomcounty.com", "address2": null, "shortzip": "5821", "lastupdated": "'2014-02-28", "phone": "(802) 357-4616", "state": "VT", "letter": "k", "address": "949 Somers Road", "lat": 44.33793379999999, "lng": -72.1196281, "id": null, "__rowid__": "jfl2k"}, {"city": "Norwich", "name": "Kirschner Concerts", "zip": "05055", "url": "http://www.kconcerts.com", "address2": null, "shortzip": "5055", "lastupdated": "'2014-02-28", "phone": "(802) 649-5543", "state": "VT", "letter": "k", "address": "PO Box 165", "lat": 49.20806169999999, "lng": 16.4538281, "id": "179", "__rowid__": "jgzn1"}, {"city": "Westminister", "name": "Kurn Hattin Homes for Children", "zip": "05158", "url": "http://www.kurnhattin.org", "address2": "PO Box 127", "shortzip": "5158", "lastupdated": "'2014-02-28", "phone": "(802) 722-3336", "state": "VT", "letter": "k", "address": "708 Kurn Hattin Road", "lat": 43.06530799999999, "lng": -72.474907, "id": "181", "__rowid__": "jtmqq"}, {"city": "Burlington", "name": "Lake Champlain Chocolates", "zip": "05401", "url": "http://www.lakechamplainchocolates.com/", "address2": null, "shortzip": "5401", "lastupdated": "'2014-02-28", "phone": "(800) 465-5909", "state": "VT", "letter": "l", "address": "750 Pine St", "lat": 44.4587975, "lng": -73.2138264, "id": "769", "__rowid__": "jv1b7"}, {"city": "Shelburne", "name": "Lake Champlain Waldorf School", "zip": "05482", "url": "http://www.lakechamplainwaldorfschool.org", "address2": null, "shortzip": "5482", "lastupdated": "'2014-02-28", "phone": "(802) 985-2827", "state": "VT", "letter": "l", "address": "359 Turtle Lane", "lat": 44.387337, "lng": -73.236099, "id": null, "__rowid__": "137qlv"}, {"city": "South Burlington", "name": "Lang, McLaughry, Spera", "zip": "05403", "url": "http://www.lmsre.com", "address2": null, "shortzip": "5403", "lastupdated": "'2014-02-28", "phone": "(802) 846-7921", "state": "VT", "letter": "l", "address": "550 Hinesburg Rd", "lat": 44.455627, "lng": -73.16642499999999, "id": null, "__rowid__": "jo0h2"}, {"city": "Burlington", "name": "Langrock Sperry & Wool, LLP", "zip": "05402", "url": "http://www.langrock.com", "address2": null, "shortzip": "5402", "lastupdated": "'2014-02-28", "phone": "(802) 864-0217", "state": "VT", "letter": "l", "address": "210 College Street PO Box 721 ", "lat": 44.4799999, "lng": -73.2099999, "id": "182", "__rowid__": "jpf1j"}, {"city": "Concord", "name": "League of New Hampshire Craftsmen", "zip": "03301", "url": "http://www.nhcrafts.org", "address2": null, "shortzip": "3301", "lastupdated": "'2014-02-28", "phone": "(603) 224-3375", "state": "NH", "letter": "l", "address": "205 North Main St.", "lat": 43.213781, "lng": -71.541, "id": "575", "__rowid__": "z48wq"}, {"city": "Barre", "name": "Lenny's Shoe & Apparel", "zip": "05641", "url": "http://www.lennyshoe.com", "address2": null, "shortzip": "5641", "lastupdated": "'2014-02-28", "phone": "(802) 476-7446", "state": "VT", "letter": "l", "address": "359 North Main Street", "lat": 44.201697, "lng": -72.506295, "id": null, "__rowid__": "jqtlw"}, {"city": "Burlington", "name": "Leunig's Bistro", "zip": "05401", "url": "http://www.leunigsbistro.com", "address2": null, "shortzip": "5401", "lastupdated": "'2014-02-28", "phone": "(802) 863-3759", "state": "VT", "letter": "l", "address": " 115 Church St.", "lat": 44.477213, "lng": -73.2127579, "id": null, "__rowid__": "13byb2"}, {"city": "Winooski", "name": "Lightworks", "zip": "05404", "url": "http://www.lightworksvt.com", "address2": null, "shortzip": "5404", "lastupdated": "'2014-02-28", "phone": "(802) 658-6158", "state": "VT", "letter": "l", "address": "1 Tigan St", "lat": 44.501275, "lng": -73.184842, "id": null, "__rowid__": "js86d"}, {"city": "Castleton", "name": "Limbwalker Tree Service", "zip": "05735", "url": "http://www.limbwalking.com/", "address2": null, "shortzip": "5735", "lastupdated": "'2014-02-28", "phone": "(802) 273-2197", "state": "VT", "letter": "l", "address": "642 Monument Hill Rd", "lat": 43.710026, "lng": -73.1754, "id": "183", "__rowid__": "f6h3v"}, {"city": "Littleton", "name": "Littleton Regional Healthcare", "zip": "03561", "url": "http://www.littletonhealthcare.org", "address2": null, "shortzip": "3561", "lastupdated": "'2014-02-28", "phone": "(603) 444-9000", "state": "NH", "letter": "l", "address": "600 St. Johnsbury Road", "lat": 44.3177957, "lng": -71.8255817, "id": null, "__rowid__": "12wi2j"}, {"city": "Lyme", "name": "Lyme Green Heat", "zip": "03768", "url": "http://www.lymegreenheat.com", "address2": null, "shortzip": "3768", "lastupdated": "'2014-02-28", "phone": "(603) 359-8837", "state": "NH", "letter": "l", "address": null, "lat": 33.5049253, "lng": 134.2689411, "id": "188", "__rowid__": "f9a8p"}, {"city": "Lyndonville", "name": "Lyndon State College", "zip": "05851", "url": "http://www.lyndonstate.edu", "address2": null, "shortzip": "5851", "lastupdated": "'2014-02-28", "phone": "(802) 626-6413", "state": "VT", "letter": "l", "address": "100 College Road", "lat": 44.5376801, "lng": -72.0158175, "id": null, "__rowid__": "ezg9q"}, {"city": "Brooklyn", "name": "Lyra Summer Music Workshop", "zip": "11226", "url": "http://www.lyrasummermusic.com", "address2": null, "shortzip": "11226", "lastupdated": "'2014-07-08", "phone": "(917) 622-0395", "state": "NY", "letter": "l", "address": "1320 Beverly Road", "lat": 40.0669663, "lng": -74.8774323, "id": null, "__rowid__": "zuxop"}, {"city": "Williston", "name": "Lyric Theatre", "zip": "05495", "url": "http://www.lyrictheatrevt.org", "address2": null, "shortzip": "5495", "lastupdated": "'2014-03-18", "phone": "(802) 658-1484", "state": "VT", "letter": "l", "address": "55 Leroy ", "lat": 44.448698, "lng": -73.1314979, "id": "770", "__rowid__": "f29ek"}, {"city": "Warren", "name": "Mad River Valley Craft Fair", "zip": "05674", "url": "http://www.madrivercraftfair.com", "address2": null, "shortzip": "5674", "lastupdated": "'2014-02-28", "phone": null, "state": "VT", "letter": "m", "address": null, "lat": 33.5049253, "lng": 134.2689411, "id": "189", "__rowid__": "f3nz1"}, {"city": "Morrisville", "name": "Manor (The)", "zip": "05661", "url": "http://www.themanorvt.org", "address2": null, "shortzip": "5661", "lastupdated": "'2014-02-28", "phone": "(802) 888-8700", "state": "VT", "letter": "m", "address": "577 Washington Highway", "lat": 44.55575899999999, "lng": -72.589727, "id": null, "__rowid__": "z721k"}, {"city": "Morrisville", "name": "Manufacturing Solutions", "zip": "05661", "url": "http://www.msivt.com", "address2": null, "shortzip": "5661", "lastupdated": "'2014-02-28", "phone": "(802) 888-3289", "state": "VT", "letter": "m", "address": "153 Stafford Ave", "lat": 44.574015, "lng": -72.598221, "id": "849", "__rowid__": "fgb2q"}, {"city": "Montpelier", "name": "Maple Capital Management", "zip": "05602", "url": "http://www.maplecapital.com", "address2": null, "shortzip": "5602", "lastupdated": "'2014-10-07", "phone": "(802) 229-2838", "state": "VT", "letter": "m", "address": "535 Stonecutters Way", "lat": 44.255128, "lng": -72.57372, "id": null, "__rowid__": "12a0y3"}, {"city": "Brattleboro", "name": "Marlboro College Graduate School", "zip": "05301", "url": "http://www.marlboro.edu/techcenter", "address2": null, "shortzip": "5301", "lastupdated": "'2014-03-18", "phone": "(802) 258-9200", "state": "VT", "letter": "m", "address": " 28 Vernon St.", "lat": 42.850283, "lng": -72.556164, "id": null, "__rowid__": "fhpn7"}, {"city": "Lebanon", "name": "Mascoma Savings Bank", "zip": "03766", "url": "http://www.mascomasavings.com", "address2": null, "shortzip": "3766", "lastupdated": "'2014-06-17", "phone": "(603) 448-3650", "state": "NH", "letter": "m", "address": "67 N Park St", "lat": 43.6429457, "lng": -72.2522127, "id": null, "__rowid__": "139568"}, {"city": "Essex Junction", "name": "Mclure Moving and Storage", "zip": "05452", "url": "http://www.vermontmovers.com", "address2": null, "shortzip": "5452", "lastupdated": "'2014-06-23", "phone": "(802) 878-5344", "state": "VT", "letter": "m", "address": "167 Colchester Ave", "lat": 44.511775, "lng": -73.119493, "id": "884", "__rowid__": "fdhxw"}, {"city": "Burlington", "name": "Merchants Bank", "zip": "05402", "url": "http://www.mbvt.com", "address2": null, "shortzip": "5402", "lastupdated": "'2014-02-28", "phone": "(800) 322-5222", "state": "VT", "letter": "m", "address": " P.O. Box 1009", "lat": 49.20806169999999, "lng": 16.4538281, "id": null, "__rowid__": "frjm2"}, {"city": "Middlebury", "name": "Middlebury College Museum of Art", "zip": "05753", "url": "http://www.middlebury.edu/museum", "address2": null, "shortzip": "5753", "lastupdated": "'2014-02-28", "phone": "(802) 443-5007", "state": "VT", "letter": "m", "address": " Center for the Arts,", "lat": 44.005491, "lng": -73.17531799999999, "id": null, "__rowid__": "fnbwv"}, {"city": "Middlebury", "name": "Middlebury Interactive Languages", "zip": "05753", "url": "http://www.middleburyinteractive.com", "address2": null, "shortzip": "5753", "lastupdated": "'2014-05-09", "phone": "(800) 596-0910", "state": "VT", "letter": "m", "address": "23 Pond Lane", "lat": 44.034595, "lng": -73.170677, "id": "465", "__rowid__": "foqh8"}, {"city": "Middlebury", "name": "Middlebury Natural Food CoOp", "zip": "05753", "url": "http://middleburycoop.com", "address2": "#1", "shortzip": "5753", "lastupdated": "'2014-02-28", "phone": "(802) 388-7276", "state": "VT", "letter": "m", "address": "1 Washington St", "lat": 44.01461399999999, "lng": -73.16526, "id": null, "__rowid__": "g2s5e"}, {"city": " West Lebanon", "name": "Milne Travel", "zip": "03784", "url": "http://www.milnetravel.com", "address2": " 24 Airport Rd.", "shortzip": "3784", "lastupdated": "'2014-02-28", "phone": "(800) 786-4563", "state": "NH", "letter": "m", "address": "scott.milne@milnetravel.com", "lat": 43.6227722, "lng": -72.3138748, "id": "192", "__rowid__": "g5la8"}, {"city": "Burlington", "name": "Mirabelle's Cafe and Bakery", "zip": "05401", "url": "http://www.mirabellescafe.com/", "address2": null, "shortzip": "5401", "lastupdated": "'2014-02-28", "phone": "(802) 658-3074", "state": "VT", "letter": "m", "address": "198 Main St", "lat": 44.476166, "lng": -73.21152699999999, "id": "852", "__rowid__": "g6zup"}, {"city": "Keene", "name": "Monadnock International Film Festival", "zip": "03431", "url": "http://www.moniff.com", "address2": null, "shortzip": "3431", "lastupdated": "'2014-02-28", "phone": null, "state": "NH", "letter": "m", "address": "39 Central Square", "lat": 42.9338828, "lng": -72.2789119, "id": null, "__rowid__": "fykg7"}, {"city": "Barre", "name": "Montpelier Construction", "zip": "05641", "url": "http://www.montpelierconstruction.com", "address2": null, "shortzip": "5641", "lastupdated": "'2014-06-02", "phone": "(802)229-6575", "state": "VT", "letter": "m", "address": "164 Plainfield Rd", "lat": 44.22277099999999, "lng": -72.475791, "id": null, "__rowid__": "fzz0k"}, {"city": "Norwich", "name": "Montshire Museum ", "zip": "05055", "url": "http://www.montshire.org/", "address2": null, "shortzip": "5055", "lastupdated": "'2014-02-28", "phone": "(802) 649-2200", "state": "VT", "letter": "m", "address": "1 Montshire Road", "lat": 43.7001816, "lng": -72.30543060000001, "id": null, "__rowid__": "g1dl1"}, {"city": "Montpelier", "name": "Morse Farm Maple Sugarworks", "zip": "05602", "url": "http://www.morsefarm.com", "address2": null, "shortzip": "5602", "lastupdated": "'2014-02-28", "phone": "(800) 242-2740", "state": "VT", "letter": "m", "address": "1168 County Road", "lat": 44.28655200000001, "lng": -72.543297, "id": null, "__rowid__": "ge0qi"}, {"city": "Manchester Center", "name": "Mother Myrick's Confectionery", "zip": "05255", "url": "http://www.mothermyricks.com", "address2": null, "shortzip": "5255", "lastupdated": "'2014-02-28", "phone": "(802) 348-1747", "state": "VT", "letter": "m", "address": "4367 Main St.", "lat": 43.1719549, "lng": -73.0644669, "id": "688", "__rowid__": "gffaz"}, {"city": "Manchester", "name": "Mountain Goat", "zip": "05255", "url": "http://mountaingoat.com/", "address2": null, "shortzip": "5255", "lastupdated": "'2014-02-28", "phone": "(802) 362-5159", "state": "VT", "letter": "m", "address": "4886 Historic Main St", "lat": 33.9983665, "lng": -118.2739423, "id": "891", "__rowid__": "ggtvc"}, {"city": "South Burlington", "name": "Mountain View Natural Medicine", "zip": "05403", "url": "http://www.mountainviewnaturalmedicine.com", "address2": null, "shortzip": "5403", "lastupdated": "'2014-02-28", "phone": "(802) 860-3366", "state": "VT", "letter": "m", "address": "185 Tilley Drive", "lat": 44.44941000000001, "lng": -73.152835, "id": "798", "__rowid__": "gi8ft"}, {"city": "Burlington", "name": "Murphy Sullivan Kronk", "zip": "05406", "url": "http://www.mskvt.com/", "address2": null, "shortzip": "5406", "lastupdated": "'2014-02-28", "phone": "(802) 861-7000", "state": "VT", "letter": "m", "address": "275 College St.", "lat": 44.477112, "lng": -73.2085649, "id": null, "__rowid__": "g8egu"}, {"city": "Plainfield", "name": "Murray & Walker", "zip": "03781", "url": "http://www.murrayandwalker.com", "address2": null, "shortzip": "3781", "lastupdated": "'2014-02-28", "phone": "(603) 469-3494", "state": "NH", "letter": "m", "address": "122 Sanborn Rd", "lat": 43.53659469999999, "lng": -72.27597519999999, "id": null, "__rowid__": "g9t1b"}, {"city": "Cambridge", "name": "Music from Salem", "zip": "12816", "url": "http://www.musicfromsalem.org", "address2": null, "shortzip": "12816", "lastupdated": "'2014-02-28", "phone": "(518) 232-2347", "state": "NY", "letter": "m", "address": "25 E. Main St", "lat": 43.0279695, "lng": -73.3798128, "id": null, "__rowid__": "gb7lo"}, {"city": "South Burlington", "name": "Nancy Jenkins Real Estate", "zip": "05403", "url": "http://www.nancyjenkins.com", "address2": null, "shortzip": "5403", "lastupdated": "'2014-02-28", "phone": "(888) 567-4049", "state": "VT", "letter": "n", "address": "120 Kimball Ave", "lat": 44.454439, "lng": -73.1431999, "id": "584", "__rowid__": "gcm65"}, {"city": "Middlebury", "name": "National Bank of Middlebury", "zip": "05753", "url": "http://www.nationalbankmiddlebury.com/", "address2": null, "shortzip": "5753", "lastupdated": "'2014-02-28", "phone": "(802) 388-4982", "state": "VT", "letter": "n", "address": "30 Main St", "lat": 44.014286, "lng": -73.168297, "id": "876", "__rowid__": "gqnub"}, {"city": "Montpelier", "name": "National Life Group ", "zip": "05604", "url": "http://www.nationallifegroup.com", "address2": null, "shortzip": "5604", "lastupdated": "'2014-02-28", "phone": "(802) 229-3333", "state": "VT", "letter": "n", "address": "1 National Life Drive ", "lat": 44.2560508, "lng": -72.584543, "id": null, "__rowid__": "gs2eo"}, {"city": "West Rutland", "name": "Neighborworks of Western VT", "zip": "05777", "url": "http://www.nwwvt.org", "address2": null, "shortzip": "5777", "lastupdated": "'2014-02-28", "phone": "(802) 438-2302", "state": "VT", "letter": "n", "address": "110 Marble St", "lat": 43.59590499999999, "lng": -73.048294, "id": "202", "__rowid__": "gjn06"}, {"city": "Williston", "name": "New Balance", "zip": "05495", "url": "http://stores.newbalance.com/williston/default.aspx", "address2": null, "shortzip": "5495", "lastupdated": "'2014-02-28", "phone": "(802) 288-9090", "state": "VT", "letter": "n", "address": "28 Walnut St", "lat": 44.44516400000001, "lng": -73.109501, "id": null, "__rowid__": "znwuk"}, {"city": "So. Burlington", "name": "New England Automotive", "zip": "05403", "url": "http://www.newenglandautorepair.com", "address2": null, "shortzip": "5403", "lastupdated": "'2014-08-20", "phone": "(802) 660-9700", "state": "VT", "letter": "n", "address": "2071 Williston Rd", "lat": 44.458064, "lng": -73.145826, "id": null, "__rowid__": "13pzz8"}, {"city": "Manchester", "name": "New Hampshire Insititute or Arts", "zip": "03104", "url": "http://www.nhia.edu", "address2": null, "shortzip": "3104", "lastupdated": "'2014-02-28", "phone": "(603) 623-1242", "state": "NH", "letter": "n", "address": "148 Concord St", "lat": 42.9927271, "lng": -71.4589963, "id": "204", "__rowid__": "gl1kn"}, {"city": null, "name": "North Country Honda Dealers", "zip": "00000", "url": "http://northcountryhondadealers.com", "address2": null, "shortzip": null, "lastupdated": "'2014-02-28", "phone": null, "state": null, "letter": "n", "address": null, "lat": 33.5049253, "lng": 134.2689411, "id": "450", "__rowid__": "gnuph"}, {"city": "Newport", "name": "North Country Hospital", "zip": "05885", "url": "http://www.nchsi.org", "address2": null, "shortzip": "5885", "lastupdated": "'2014-02-28", "phone": "(802) 334-7331", "state": "VT", "letter": "n", "address": "189 Prouty Road", "lat": 44.955601, "lng": -72.20076, "id": null, "__rowid__": "125t8s"}, {"city": "Concord", "name": "Northeast Delta Dental", "zip": "03302", "url": "http://www.mskvt.com/", "address2": null, "shortzip": "3302", "lastupdated": "'2014-02-28", "phone": "(800) 537-1715", "state": "NH", "letter": "n", "address": "One Delta Drive", "lat": 43.224581, "lng": -71.5359409, "id": "205", "__rowid__": "h1wdn"}, {"city": "Richmond", "name": "Northeastern Organic Farming Association of Vermont", "zip": "05477", "url": "http://www.nofavt.org", "address2": null, "shortzip": "5477", "lastupdated": "'2014-02-28", "phone": "(802) 434-4122", "state": "VT", "letter": "n", "address": "PO Box 697 ", "lat": 49.20806169999999, "lng": 16.4538281, "id": null, "__rowid__": "10k7xz"}, {"city": "White River Junction", "name": "Northern Stage Company", "zip": "55001", "url": "http://www.northernstage.org", "address2": null, "shortzip": "55001", "lastupdated": "'2014-09-10", "phone": "(802) 291-9009", "state": "VT", "letter": "n", "address": "PO Box 4287", "lat": 49.20806169999999, "lng": 16.4538281, "id": null, "__rowid__": "zb9qv"}, {"city": "Manchester Center", "name": "Northshire Books", "zip": "05255", "url": "http://www.northshire.com", "address2": null, "shortzip": "5255", "lastupdated": "'2014-02-28", "phone": "(800) 437-3700", "state": "VT", "letter": "n", "address": " 4869 Main St., P.O. Box 2200", "lat": 0.427468, "lng": 33.2089031, "id": null, "__rowid__": "zs4jv"}, {"city": "St. Albans", "name": "Northwestern Medical Center", "zip": "05478", "url": "http://www.northwestern.org", "address2": null, "shortzip": "5478", "lastupdated": "'2014-03-18", "phone": "(802) 524-5911", "state": "VT", "letter": "n", "address": "133 Fairfield St", "lat": 44.807652, "lng": -73.072328, "id": "206", "__rowid__": "h4pih"}, {"city": "Norwich", "name": "Norwich Book Store", "zip": "05055", "url": "http://www.norwichbookstore.com", "address2": null, "shortzip": "5055", "lastupdated": "'2014-02-28", "phone": "(802) 649-1144", "state": "VT", "letter": "n", "address": "291 Main Street", "lat": 43.713425, "lng": -72.30851, "id": "774", "__rowid__": "guvji"}, {"city": "Burlington", "name": "Onion River Co-op", "zip": "05402", "url": "http://www.citymarket.coop", "address2": null, "shortzip": "5402", "lastupdated": "'2014-02-28", "phone": "(802) 863-3659", "state": "VT", "letter": "o", "address": " 82 S. Winooski Ave.", "lat": 44.4829, "lng": -73.2110469, "id": "210", "__rowid__": "yymn2"}, {"city": "Montpelier", "name": "Onion River Sports", "zip": "05602", "url": "http://www.onionriver.com", "address2": null, "shortzip": "5602", "lastupdated": "'2014-02-28", "phone": "(802) 229-9409", "state": "VT", "letter": "o", "address": "20 Langdon St.", "lat": 44.26060040000001, "lng": -72.5752608, "id": "211", "__rowid__": "gxooc"}, {"city": "Lebanon", "name": "Opera North", "zip": "03766", "url": "http://www.operanorth.org", "address2": null, "shortzip": "3766", "lastupdated": "'2014-02-28", "phone": "(603) 448-4141", "state": "NH", "letter": "o", "address": " 20 West Park St.", "lat": 43.6423912, "lng": -72.2527607, "id": "895", "__rowid__": "gz38t"}, {"city": "Weston", "name": "Opera Theatre of Weston", "zip": "05161", "url": "http://www.operatheatreofweston.com/", "address2": null, "shortzip": "5161", "lastupdated": "'2014-02-28", "phone": "(802) 824-3821", "state": "VT", "letter": "o", "address": "100 Dale Rd", "lat": 43.271137, "lng": -72.779572, "id": "629", "__rowid__": "hbqci"}, {"city": "Burlington", "name": "Osher Lifelong Learning Institute", "zip": "05401", "url": "http://www.learn.uvm.edu/osher-lifelong-learning", "address2": null, "shortzip": "5401", "lastupdated": "'2014-02-28", "phone": "(802) 656-2085", "state": "VT", "letter": "o", "address": "460 So. Prospect St.", "lat": 44.467655, "lng": -73.20033099999999, "id": null, "__rowid__": "hd4wz"}, {"city": "Burlington", "name": "Outdoor Gear Exchange", "zip": "05401", "url": "http://www.gearx.com", "address2": null, "shortzip": "5401", "lastupdated": "'2014-02-28", "phone": "(802) 860-0190", "state": "VT", "letter": "o", "address": "37 Church St", "lat": 44.4792581, "lng": -73.2127373, "id": "799", "__rowid__": "ziakw"}, {"city": "Williston", "name": "PT-360", "zip": "05495", "url": "http://www.pt360coop.com", "address2": "Suite 190", "shortzip": "5495", "lastupdated": "'2014-02-28", "phone": "(802) 860-4360", "state": "VT", "letter": "p", "address": "426 Industrial Ave,", "lat": 44.461075, "lng": -73.123154, "id": "229", "__rowid__": "2m671"}, {"city": "Rutland", "name": "Paramount Theater", "zip": "05701", "url": "http://www.paramountvt.org", "address2": null, "shortzip": "5701", "lastupdated": "'2014-09-03", "phone": "(802) 775-0570", "state": "VT", "letter": "p", "address": "30 Center St.", "lat": 43.606379, "lng": -72.9787413, "id": null, "__rowid__": "hejhc"}, {"city": "Burlington", "name": "Peace & Justice Center", "zip": "05401", "url": "http://www.pjcvt.org/", "address2": null, "shortzip": "5401", "lastupdated": "'2014-02-28", "phone": "(802) 863-8326", "state": "VT", "letter": "p", "address": "60 Lake St", "lat": 44.477773, "lng": -73.219759, "id": "613", "__rowid__": "hfy1t"}, {"city": "Burlington", "name": "Penny Cluse Cafe", "zip": "05401", "url": "http://www.pennycluse.com", "address2": null, "shortzip": "5401", "lastupdated": "'2014-08-20", "phone": "(802) 651-8834", "state": "VT", "letter": "p", "address": "169 Cherry St", "lat": 44.479229, "lng": -73.21131650000001, "id": null, "__rowid__": "h642u"}, {"city": "Manchester", "name": "Perfect Wife Restaurant", "zip": "05255", "url": "http://www.perfectwife.com", "address2": null, "shortzip": "5255", "lastupdated": "'2014-02-28", "phone": "(802) 362-2817", "state": "VT", "letter": "p", "address": " 2594 Depot St.", "lat": 43.179714, "lng": -73.010696, "id": "535", "__rowid__": "h7inb"}, {"city": "Middlebury", "name": "Permanent Fund for Vermont's Children", "zip": "05753", "url": "http://www.permanentfund.org/", "address2": null, "shortzip": "5753", "lastupdated": "'2014-02-28", "phone": "(802) 498-5157", "state": "VT", "letter": "p", "address": "3 Court Street", "lat": 44.0140383, "lng": -73.16538059999999, "id": "510", "__rowid__": "h8x7o"}, {"city": "South Burlington", "name": "Pet Food Warehouse", "zip": "05403", "url": "http://www.pfwvt.com/", "address2": null, "shortzip": "5403", "lastupdated": "'2014-02-28", "phone": "(802) 862-5514", "state": "VT", "letter": "p", "address": "2500 Williston Rd", "lat": 44.459057, "lng": -73.144173, "id": null, "__rowid__": "habs5"}, {"city": "So. Burlington", "name": "Pillsbury Senior Communities", "zip": "05403", "url": "http://www.pillsburyseniorcommunities.com", "address2": null, "shortzip": "5403", "lastupdated": "'2014-02-28", "phone": "(802) 863-7897", "state": "VT", "letter": "p", "address": "20 Harbor View Rd", "lat": 44.423801, "lng": -73.206025, "id": null, "__rowid__": "13ajqp"}, {"city": "Montpelier", "name": "Positive Pie", "zip": "05601", "url": "http://www.positivepie.com", "address2": null, "shortzip": "5601", "lastupdated": "'2014-02-28", "phone": "(802) 229-0453", "state": "VT", "letter": "p", "address": "22 State St", "lat": 44.8022563, "lng": -68.7696311, "id": "832", "__rowid__": "2hyhq"}, {"city": "Burlington", "name": "Prentiss Smith & Company", "zip": "05401", "url": "http://www.socialinvesting.com", "address2": null, "shortzip": "5401", "lastupdated": "'2014-02-28", "phone": "(802) 651-4045", "state": "VT", "letter": "p", "address": "110 Main St", "lat": 44.476164, "lng": -73.21504999999999, "id": "228", "__rowid__": "2jd27"}, {"city": "Putney", "name": "Putney Craft Tour", "zip": "05346", "url": "http://www.putneycrafts.com", "address2": null, "shortzip": "5346", "lastupdated": "'2014-02-28", "phone": "(802) 387-4032", "state": "VT", "letter": "p", "address": "PO Box 435", "lat": 49.20806169999999, "lng": 16.4538281, "id": null, "__rowid__": "2ytaq"}, {"city": "South Burlington", "name": "Quantum Leap Capital ", "zip": "05403", "url": "http://www.quantumleapcapital.com", "address2": "Suite 230", "shortzip": "5403", "lastupdated": "'2014-03-18", "phone": "(802) 448-2882", "state": "VT", "letter": "q", "address": "620 Hinesburg Rd", "lat": 44.455554, "lng": -73.166507, "id": "230", "__rowid__": "31mfk"}, {"city": "Manchester Center", "name": "R. K. Miles, Inc.", "zip": "05255", "url": "http://www.rkmiles.com/", "address2": "PO Box 1125", "shortzip": "5255", "lastupdated": "'2014-02-28", "phone": "(888) 447-5645", "state": "VT", "letter": "r", "address": "618 Depot St", "lat": 43.172279, "lng": -73.04640200000001, "id": "233", "__rowid__": "33101"}, {"city": "So. Burlington", "name": "RSEP - Regional Stormwater Education Program", "zip": "05403", "url": "http://www.smartwaterways.org/", "address2": "Suite 206", "shortzip": "5403", "lastupdated": "'2014-02-28", "phone": "(802) 864-6710", "state": "VT", "letter": "r", "address": "30 Kimball Ave", "lat": 44.459801, "lng": -73.1528809, "id": null, "__rowid__": "2w05w"}, {"city": "South Burlington", "name": "ReArch Company", "zip": "05403", "url": "http://www.rearchcompany.com", "address2": "#402", "shortzip": "5403", "lastupdated": "'2014-07-31", "phone": "(802) 863-8727", "state": "VT", "letter": "r", "address": "55 Community Drive", "lat": 44.44896199999999, "lng": -73.14070699999999, "id": null, "__rowid__": "13dcvj"}, {"city": "Bristol", "name": "Red Cedar School", "zip": "05443", "url": null, "address2": "PO Box 393", "shortzip": "5443", "lastupdated": "'2014-02-28", "phone": "(802) 453-5213", "state": "VT", "letter": "r", "address": "246 Hardscrabble Rd", "lat": 44.157711, "lng": -73.10404199999999, "id": "234", "__rowid__": "zxqtj"}, {"city": "Middlebury", "name": "Residence at Otter Creek", "zip": "05753", "url": "http://www.residenceottercreek.com", "address2": null, "shortzip": "5753", "lastupdated": "'2014-10-15", "phone": "(802) 388-1220", "state": "VT", "letter": "r", "address": "350 Lodge Road", "lat": 43.992544, "lng": -73.155642, "id": null, "__rowid__": "2t712"}, {"city": "Shelburne", "name": "Residence at Shelburne Bay", "zip": "05482", "url": "http://www.residenceshelburnebay.com", "address2": null, "shortzip": "5482", "lastupdated": "'2014-10-15", "phone": "(802) 985-9847", "state": "VT", "letter": "r", "address": "185 Pine Haven Shore Rd", "lat": 44.417963, "lng": -73.215193, "id": null, "__rowid__": "2ullj"}, {"city": "Rutland", "name": "Rutland Regional Medical Center", "zip": "05701", "url": "http://www.rrmc.org", "address2": null, "shortzip": "5701", "lastupdated": "'2014-07-21", "phone": "(802) 775-7111", "state": "VT", "letter": "r", "address": "160 Allen St", "lat": 43.598277, "lng": -72.95511700000002, "id": null, "__rowid__": "3a1u2"}, {"city": "Ryegate", "name": "Ryegate Small Animal Hospital", "zip": "05042", "url": "http://www.ryegatevet.com", "address2": null, "shortzip": "5042", "lastupdated": "'2014-02-28", "phone": "(802) 633-3660", "state": "VT", "letter": "r", "address": "54 Moore Lane", "lat": 44.2419501, "lng": -72.0551499, "id": null, "__rowid__": "3bgej"}, {"city": "Brattleboro", "name": "SIT - School for International Training", "zip": "05302", "url": "http://www.sit.edu/", "address2": null, "shortzip": "5302", "lastupdated": "'2014-02-28", "phone": "(802) 257-7751", "state": "VT", "letter": "s", "address": "1 Kipling Rd", "lat": 42.8860292, "lng": -72.56592049999999, "id": null, "__rowid__": "3jvt1"}, {"city": "South Royalton", "name": "Sabra Field", "zip": "05068", "url": "http://www.sabrafield.com", "address2": null, "shortzip": "5068", "lastupdated": "'2014-06-03", "phone": "(802) 763-7271", "state": "VT", "letter": "s", "address": "75 East Barnard Road", "lat": 43.74556, "lng": -72.544037, "id": "728", "__rowid__": "3cuyw"}, {"city": "Rutland", "name": "Same Sun of Vermont", "zip": "05701", "url": "http://www.samesunvt.com/", "address2": null, "shortzip": "5701", "lastupdated": "'2014-02-28", "phone": "(802) 775-7900", "state": "VT", "letter": "s", "address": "24 Center St", "lat": 43.6064996, "lng": -72.9789815, "id": "235", "__rowid__": "108zen"}, {"city": "Saratoga Springs", "name": "Saratoga Performing Arts Center", "zip": "12866", "url": "http://www.spac.org", "address2": null, "shortzip": "12866", "lastupdated": "'2014-02-28", "phone": "(518) 584-9330", "state": "NY", "letter": "s", "address": "108 Avenue of the Pines", "lat": 43.0553703, "lng": -73.80557069999999, "id": "236", "__rowid__": "13vm8w"}, {"city": "South Burlington", "name": "Shearer Acura", "zip": "05403", "url": "http://www.sheareracura.com/index.htm", "address2": null, "shortzip": "5403", "lastupdated": "'2014-02-28", "phone": "(888) 574-0170", "state": "VT", "letter": "s", "address": "1301 Shelburne Rd", "lat": 44.43451899999999, "lng": -73.211523, "id": "801", "__rowid__": "34fke"}, {"city": "South Burlington", "name": "Shearer GMC", "zip": "05403", "url": "http://www.shearerauto.com/index.htm", "address2": null, "shortzip": "5403", "lastupdated": "'2014-03-18", "phone": "(888) 542-6276", "state": "VT", "letter": "s", "address": "1675 Shelburne Road", "lat": 44.427129, "lng": -73.212248, "id": "237", "__rowid__": "378p8"}, {"city": "Rutland", "name": "Shearer Honda", "zip": "05701", "url": "http://www.shearerhonda.com", "address2": null, "shortzip": "5701", "lastupdated": "'2014-02-28", "phone": "(802) 773-4600", "state": "VT", "letter": "s", "address": "211 US Rte. 7 So.", "lat": 43.587238, "lng": -72.967833, "id": "775", "__rowid__": "38n9p"}, {"city": "South Burlington", "name": "Shearer Volkswagen", "zip": "05403", "url": "http://www.volkswagensouthburlington.com/index.htm", "address2": null, "shortzip": "5403", "lastupdated": "'2014-06-19", "phone": "(877) 462-1184", "state": "VT", "letter": "s", "address": "1030 Shelburne Rd", "lat": 44.4404614, "lng": -73.2096998, "id": "853", "__rowid__": "3lade"}, {"city": "Shelburne", "name": "Shelburne Museum", "zip": "05482", "url": "http://www.shelburnemuseum.org", "address2": null, "shortzip": "5482", "lastupdated": "'2014-02-28", "phone": "(802) 985-3346", "state": "VT", "letter": "s", "address": "6000 Shelburne Road", "lat": 44.3708733, "lng": -73.2316975, "id": "716", "__rowid__": "3moxv"}, {"city": "Quechee", "name": "Simon Pearce", "zip": "05059", "url": "http://www.simonpearce.com", "address2": null, "shortzip": "5059", "lastupdated": "'2014-02-28", "phone": "(802) 295-2711", "state": "VT", "letter": "s", "address": "1760 Quechee Main St", "lat": 43.6460582, "lng": -72.4194194, "id": null, "__rowid__": "3o3i8"}, {"city": "Stowe", "name": "Sisler Builders", "zip": "05672", "url": "http://www.sislerbuilders.com", "address2": null, "shortzip": "5672", "lastupdated": "'2014-06-02", "phone": "(802) 253-5672", "state": "VT", "letter": "s", "address": "56 Park St", "lat": 44.464462, "lng": -72.685661, "id": "226", "__rowid__": "3ih8k"}, {"city": "Burlington", "name": "Skirack", "zip": "05401", "url": "http://www.skirack.com", "address2": null, "shortzip": "5401", "lastupdated": "'2014-02-28", "phone": "(802) 658-3313", "state": "VT", "letter": "s", "address": " 81 Main St.", "lat": 44.47579380000001, "lng": -73.2159978, "id": "538", "__rowid__": "10het5"}, {"city": "So. Burlington", "name": "Small Dog Electronics", "zip": "05403", "url": "http://www.smalldog.com", "address2": null, "shortzip": "5403", "lastupdated": "'2014-02-28", "phone": "(802) 862-1316", "state": "VT", "letter": "s", "address": "100 Dorset St.", "lat": 44.467469, "lng": -73.180334, "id": null, "__rowid__": "3zc3c"}, {"city": "Burlington", "name": "Snelling Center for Government", "zip": "05401", "url": "http://www.snellingcenter.org", "address2": null, "shortzip": "5401", "lastupdated": "'2014-02-28", "phone": "(802) 859-3090", "state": "VT", "letter": "s", "address": "130 S. Willard St.", "lat": 44.47692199999999, "lng": -73.2052099, "id": null, "__rowid__": "zwc92"}, {"city": "Bennington", "name": "Southern Vermont College", "zip": "05201", "url": "http://www.svc.edu", "address2": null, "shortzip": "5201", "lastupdated": "'2014-02-28", "phone": "(800) 447-4000", "state": "VT", "letter": "s", "address": "982 Mansion Ave", "lat": 42.878036, "lng": -73.1968254, "id": null, "__rowid__": "xbmx4"}, {"city": "Bellows Falls", "name": "Sovernet Communications", "zip": "05101", "url": "http://www.sover.net", "address2": "PO Box 495", "shortzip": "5101", "lastupdated": "'2014-02-28", "phone": "(877) 877-2120", "state": "VT", "letter": "s", "address": "5 Canal St", "lat": 43.13462570000001, "lng": -72.4446025, "id": "886", "__rowid__": "3qwou"}, {"city": "Moretown", "name": "Spice of Life Catering", "zip": "05660", "url": "http://www.vtspiceoflife.com", "address2": null, "shortzip": "5660", "lastupdated": "'2014-02-28", "phone": "(802) 225-5902", "state": "VT", "letter": "s", "address": "3411 No. Fayston Rd", "lat": 44.24192800000001, "lng": -72.847855, "id": "844", "__rowid__": "3sb9b"}, {"city": "St Johnsbury", "name": "Springfield College", "zip": "05819", "url": "http://www.spfldcol.edu/", "address2": null, "shortzip": "5819", "lastupdated": "'2014-02-28", "phone": "(802) 748-5402", "state": "VT", "letter": "s", "address": "347 Emerson Falls Rd", "lat": 44.433784, "lng": -72.03791799999999, "id": "896", "__rowid__": "47rhu"}, {"city": "Stowe", "name": "Spruce Peak Performing Arts", "zip": "05672", "url": "http://www.sprucepeakarts.org/", "address2": null, "shortzip": "5672", "lastupdated": "'2014-02-28", "phone": "(802) 253-3426", "state": "VT", "letter": "s", "address": "7320 Mountain Rd", "lat": 44.5257549, "lng": -72.7770847, "id": "245", "__rowid__": "4akmo"}, {"city": "St. Johnsbury", "name": "St. Johnsbury Academy", "zip": "05819", "url": "http://www.stjacademy.org/", "address2": null, "shortzip": "5819", "lastupdated": "'2014-02-28", "phone": "(802) 748-8171", "state": "VT", "letter": "s", "address": "7 Main St", "lat": 44.4030323, "lng": -72.01991900000002, "id": "693", "__rowid__": "133iwk"}, {"city": "Colchester", "name": "St. Michael's College", "zip": "05439", "url": "http://www.smcvt.edu", "address2": null, "shortzip": "5439", "lastupdated": "'2014-02-28", "phone": "(802) 654-2000", "state": "VT", "letter": "s", "address": " 1 Winooski Park", "lat": 44.494, "lng": -73.16810679999999, "id": "694", "__rowid__": "4bz75"}, {"city": "New Haven", "name": "Stark Mountain Woodworking", "zip": "05472", "url": "http://www.starkmountain.com", "address2": null, "shortzip": "5472", "lastupdated": "'2014-02-28", "phone": "(802) 453-5549", "state": "VT", "letter": "s", "address": "359 South Street", "lat": 44.11921299999999, "lng": -73.152328, "id": "860", "__rowid__": "43jsn"}, {"city": "Craftsbury Common", "name": "Sterling College", "zip": "05827", "url": "http://www.sterlingcollege.edu", "address2": null, "shortzip": "5827", "lastupdated": "'2014-02-28", "phone": "(800) 648-3591", "state": "VT", "letter": "s", "address": null, "lat": 33.5049253, "lng": 134.2689411, "id": "591", "__rowid__": "44yd0"}, {"city": "Stowe", "name": "Stoweflake Resort and Conference Center", "zip": "05672", "url": "http://www.stoweflake.com", "address2": null, "shortzip": "5672", "lastupdated": "'2014-02-28", "phone": "(800)253-2232", "state": "VT", "letter": "s", "address": "1746 Mountain Road", "lat": 44.4741928, "lng": -72.7118583, "id": "866", "__rowid__": "13n6ue"}, {"city": "Norwood", "name": "Subaru of New England", "zip": "02062", "url": "http://www.newenglandsubaru.com", "address2": null, "shortzip": "2062", "lastupdated": "'2014-02-28", "phone": null, "state": "MA", "letter": "s", "address": "95 Morse St", "lat": 42.1710319, "lng": -71.203163, "id": "695", "__rowid__": "4keln"}, {"city": "Warrem", "name": "Sugarbush Resort", "zip": "05674", "url": "http://www.sugarbush.com", "address2": null, "shortzip": "5674", "lastupdated": "'2014-09-03", "phone": "(802) 583-6725", "state": "VT", "letter": "s", "address": "1091 Golf Course Rd", "lat": 44.1343941, "lng": -72.8758009, "id": null, "__rowid__": "4lt60"}, {"city": "So. Burlington", "name": "Sugarsnap Catering", "zip": "05403", "url": "http://www.thesnapvt.com", "address2": null, "shortzip": "5403", "lastupdated": "'2014-02-28", "phone": "(802) 861-2718", "state": "VT", "letter": "s", "address": "300 Community Drive", "lat": 44.4480661, "lng": -73.1437067, "id": "646", "__rowid__": "106681"}, {"city": "White River Jct.", "name": "Summit Wealth Group", "zip": "05001", "url": "http://www.summitwg.com", "address2": null, "shortzip": "5001", "lastupdated": "'2014-02-28", "phone": "(802) 295-5300", "state": "VT", "letter": "s", "address": "205 Billings Farm Rd.", "lat": 43.684919, "lng": -72.31698399999999, "id": null, "__rowid__": "x37im"}, {"city": "South Burlington", "name": "Swedish Pit", "zip": "05403", "url": null, "address2": null, "shortzip": "5403", "lastupdated": "'2014-02-28", "phone": "(802) 863-2646", "state": "VT", "letter": "s", "address": "88 Ethan Allen Dr", "lat": 44.483311, "lng": -73.154819, "id": null, "__rowid__": "13u7oj"}, {"city": "Bridport", "name": "System Integrators", "zip": "05734", "url": "http://www.sivermont.com", "address2": null, "shortzip": "5734", "lastupdated": "'2014-06-19", "phone": "(802) 758-5018", "state": "VT", "letter": "s", "address": "1276 Swinton Rd", "lat": 43.970889, "lng": -73.34342, "id": "256", "__rowid__": "128mdm"}, {"city": "Essex Junction", "name": "The Edge", "zip": "05452", "url": "http://www.sfedge.com", "address2": null, "shortzip": "5452", "lastupdated": "'2014-02-28", "phone": "(802) 879-7734", "state": "VT", "letter": "t", "address": "4 Gauthier Dr", "lat": 44.511346, "lng": -73.134975, "id": null, "__rowid__": "zjp5d"}, {"city": "Morrisville", "name": "The Manor\n", "zip": "05661", "url": "http://www.themanorvt.org", "address2": null, "shortzip": "5661", "lastupdated": "'2014-03-18", "phone": "(802) 888-8700", "state": "VT", "letter": "t", "address": "577 Washington Highway", "lat": 44.55575899999999, "lng": -72.589727, "id": "260", "__rowid__": "x4m33"}, {"city": "Williston", "name": "Therapy Dogs of Vermont", "zip": "05495", "url": "http://www.therapydogs.org", "address2": null, "shortzip": "5495", "lastupdated": "'2014-02-28", "phone": null, "state": "VT", "letter": "t", "address": "PO Box 1271", "lat": 49.20806169999999, "lng": 16.4538281, "id": null, "__rowid__": "x7f7x"}, {"city": "S. Burlington", "name": "Timberlane Dental", "zip": "05403", "url": "http://timberlanedental.com", "address2": null, "shortzip": "5403", "lastupdated": "'2014-02-28", "phone": "(802) 864-6881", "state": "VT", "letter": "t", "address": "60 Timber Lane", "lat": 44.452355, "lng": -73.166366, "id": "263", "__rowid__": "xk2bm"}, {"city": "Montpelier", "name": "Touch of Vermont Holiday Gift Market", "zip": "05602", "url": "http://www.touchofvt.org", "address2": null, "shortzip": "5602", "lastupdated": "'2014-02-28", "phone": "(802) 310-1725", "state": "VT", "letter": "t", "address": null, "lat": 33.5049253, "lng": 134.2689411, "id": null, "__rowid__": "xlgw3"}, {"city": "Burlington", "name": "Trattoria Delia", "zip": "05401", "url": "http://www.trattoriadelia.com/", "address2": null, "shortzip": "5401", "lastupdated": "'2014-02-28", "phone": "(802) 864-5253", "state": "VT", "letter": "t", "address": "152 St. Paul St.", "lat": 44.4754917, "lng": -73.2136806, "id": null, "__rowid__": "xmvgg"}, {"city": "Brattleboro", "name": "Trust Company of Vermont", "zip": "05301", "url": "http://www.tcvermont.com", "address2": null, "shortzip": "5301", "lastupdated": "'2014-02-28", "phone": "(802) 254-9400", "state": "VT", "letter": "t", "address": " 151 Main St.", "lat": 42.8531473, "lng": -72.5582474, "id": "871", "__rowid__": "xoa0x"}, {"city": null, "name": "Trust for Public Land", "zip": "00000", "url": "http://www.tpl.org", "address2": null, "shortzip": null, "lastupdated": "'2014-02-28", "phone": null, "state": null, "letter": "t", "address": null, "lat": 33.5049253, "lng": 134.2689411, "id": "488", "__rowid__": "xfumf"}, {"city": "Middlebury", "name": "Two Brothers Tavern", "zip": "05753", "url": "http://www.twobrotherstavern.com/", "address2": null, "shortzip": "5753", "lastupdated": "'2014-02-28", "phone": "(802) 388-0002", "state": "VT", "letter": "t", "address": "86 Main St", "lat": 44.0123133, "lng": -73.1696418, "id": null, "__rowid__": "11t653"}, {"city": "Morrisville", "name": "Union Bank", "zip": "05661", "url": "http://www.unionbankvt.com", "address2": null, "shortzip": "5661", "lastupdated": "'2014-02-28", "phone": "(866) 862-1891", "state": "VT", "letter": "u", "address": "20 Lower Main St", "lat": 44.561815, "lng": -72.59898299999999, "id": null, "__rowid__": "xinr9"}, {"city": "Storrs", "name": "University of Connecticut - Bobolink Project", "zip": "00000", "url": "http://www.bobolinkproject.com", "address2": null, "shortzip": null, "lastupdated": "'2014-10-15", "phone": "(860) 486-1917", "state": "CT", "letter": "u", "address": "1376 Storrs Road, Unit 4021", "lat": 41.812075, "lng": -72.248325, "id": null, "__rowid__": "xvawq"}, {"city": "Durham", "name": "University of New Hampshire Masters in Social Work", "zip": "03824", "url": "http://mswonline.unh.edu", "address2": null, "shortzip": "3824", "lastupdated": "'2014-02-28", "phone": null, "state": "NH", "letter": "u", "address": "Nesmith Hall", "lat": 43.1379174, "lng": -70.9357174, "id": null, "__rowid__": "zgw0j"}, {"city": "Quechee", "name": "Upper Valley Waldorf School", "zip": "05059", "url": "http://www.uvws.org/", "address2": null, "shortzip": "5059", "lastupdated": "'2014-02-28", "phone": "(802) 296-2496", "state": "VT", "letter": "u", "address": "80 Bluff Rd", "lat": 43.6466932, "lng": -72.4181344, "id": null, "__rowid__": "xwph7"}, {"city": "Montpelier", "name": "VEDA", "zip": "05602", "url": "http://www.veda.org/", "address2": "Suite 5", "shortzip": "5602", "lastupdated": "'2014-02-28", "phone": "(802) 828-2646", "state": "VT", "letter": "v", "address": "58 East State St", "lat": 44.25884, "lng": -72.571478, "id": "720", "__rowid__": "xzim1"}, {"city": "Saxtons River", "name": "Vermont Academy", "zip": "05154", "url": "http://www.vermontacademy.org", "address2": null, "shortzip": "5154", "lastupdated": "'2014-02-28", "phone": "(802) 869-6293", "state": "VT", "letter": "v", "address": "PO Box 500", "lat": 49.20806169999999, "lng": 16.4538281, "id": null, "__rowid__": "xpon2"}, {"city": "Waterbury", "name": "Vermont Artisan Coffee & Tea", "zip": "05676", "url": "http://www.vtartisan.com", "address2": null, "shortzip": "5676", "lastupdated": "'2014-03-18", "phone": "(802) 244-8338", "state": "VT", "letter": "v", "address": "80 Commercial Drive", "lat": 44.3255539, "lng": -72.743759, "id": null, "__rowid__": "xshrw"}, {"city": "Montpelier", "name": "Vermont Arts Council", "zip": "05633", "url": "http://www.vermontartscouncil.org", "address2": null, "shortzip": "5633", "lastupdated": "'2014-04-10", "phone": "(802) 828-3291", "state": "VT", "letter": "v", "address": "136 State Street", "lat": 44.261677, "lng": -72.583153, "id": "846", "__rowid__": "13st42"}, {"city": "Middlebury", "name": "Vermont Book Shop", "zip": "05753", "url": "http://www.vermontbookshop.com/", "address2": null, "shortzip": "5753", "lastupdated": "'2014-02-28", "phone": "(802) 388-2061", "state": "VT", "letter": "v", "address": "38 Main St", "lat": 44.013969, "lng": -73.16854099999999, "id": null, "__rowid__": "y6jg2"}, {"city": "Burlington", "name": "Vermont Businesses for Social Responsibility -VBSR", "zip": "05401", "url": "http://www.vbsr.org", "address2": "Suite 11", "shortzip": "5401", "lastupdated": "'2014-02-28", "phone": "(802) 862-8347", "state": "VT", "letter": "v", "address": "255 So. Champlain St", "lat": 44.47258189999999, "lng": -73.2170594, "id": "854", "__rowid__": "y7y0j"}, {"city": "Burlington", "name": "Vermont CARES", "zip": "05401", "url": "http://www.vtcares.org", "address2": null, "shortzip": "5401", "lastupdated": "'2014-02-28", "phone": "(800) 649-2437", "state": "VT", "letter": "v", "address": "187 St. Paul St.", "lat": 44.474229, "lng": -73.2145479, "id": null, "__rowid__": "y0x6e"}, {"city": "Barre", "name": "Vermont Chamber of Commerce", "zip": "05641", "url": "http://www.vtchamber.org", "address2": null, "shortzip": "5641", "lastupdated": "'2014-05-09", "phone": "(802) 223-3443", "state": "VT", "letter": "v", "address": "751 Granger Road", "lat": 44.217026, "lng": -72.55985299999999, "id": "415", "__rowid__": "y2bqv"}, {"city": "Montpelier", "name": "Vermont College of Fine Arts", "zip": "05602", "url": "http://www.vermontcollege.edu/", "address2": null, "shortzip": "5602", "lastupdated": "'2014-02-28", "phone": "(802) 828-8600", "state": "VT", "letter": "v", "address": "36 College St", "lat": 44.2551962, "lng": -72.5676407, "id": "270", "__rowid__": "y3qb8"}, {"city": "South Burlington", "name": "Vermont Commons School", "zip": "05403", "url": "http://vermontcommons.org", "address2": null, "shortzip": "5403", "lastupdated": "'2014-02-28", "phone": "(802) 865-8084", "state": "VT", "letter": "v", "address": "75 Green Mountain Drive", "lat": 44.431052, "lng": -73.20700719999999, "id": "848", "__rowid__": "y54vp"}, {"city": "Middlebury", "name": "Vermont Community Foundation", "zip": "05753", "url": "http://www.vermontcf.org", "address2": null, "shortzip": "5753", "lastupdated": "'2014-02-28", "phone": "(802) 388-3355", "state": "VT", "letter": "v", "address": " P.O. Box 30", "lat": 49.20806169999999, "lng": 16.4538281, "id": "272", "__rowid__": "yhrze"}, {"city": "Montpelier", "name": "Vermont Community Loan Fund", "zip": "05602", "url": "http://www.investinvermont.org", "address2": null, "shortzip": "5602", "lastupdated": "'2014-02-28", "phone": "(802) 223-1448", "state": "VT", "letter": "v", "address": "15 State Street", "lat": 44.26023259999999, "lng": -72.5759495, "id": "273", "__rowid__": "yj6jv"}, {"city": "Manchester Center", "name": "Vermont Country Store", "zip": "05255", "url": "http://www.vermontcountrystore.com", "address2": null, "shortzip": "5255", "lastupdated": "'2014-02-28", "phone": "(802) 362-4667", "state": "VT", "letter": "v", "address": " 5650 Main Street", "lat": 43.183292, "lng": -73.04428100000001, "id": null, "__rowid__": "ykl48"}, {"city": "Montpelier", "name": "Vermont Crafts Council", "zip": "05602", "url": "http://www.vermontcrafts.com", "address2": null, "shortzip": "5602", "lastupdated": "'2014-02-28", "phone": "(802) 223-3380", "state": "VT", "letter": "v", "address": " P.O. Box 938", "lat": 49.20806169999999, "lng": 16.4538281, "id": null, "__rowid__": "ylzop"}, {"city": "Montpelier", "name": "Vermont Department of Fish and Wildlife", "zip": "05602", "url": "http://www.vtfishandwildlife.com", "address2": null, "shortzip": "5602", "lastupdated": "'2014-02-28", "phone": "(802) 241-3700", "state": "VT", "letter": "v", "address": "1 National Life Drive", "lat": 44.2569693, "lng": -72.58374959999999, "id": "697", "__rowid__": "yc5pq"}, {"city": "Burlington", "name": "Vermont Department of Health", "zip": "05401", "url": "http://www.healthvermont.gov", "address2": null, "shortzip": "5401", "lastupdated": "'2014-02-28", "phone": "(802) 863-7200", "state": "VT", "letter": "v", "address": "108 Cherry Street", "lat": 44.479462, "lng": -73.213877, "id": "473", "__rowid__": "ydka7"}, {"city": "Barre", "name": "Vermont Division of Vocational Rehabilitation", "zip": "05641", "url": "http://www.vocrehab.vermont.gov", "address2": "Suite 100", "shortzip": "5641", "lastupdated": "'2014-02-28", "phone": "(802) 479-4210", "state": "VT", "letter": "v", "address": "South Peru Street", "lat": -26.7342342, "lng": -65.260908, "id": "805", "__rowid__": "yeyuk"}, {"city": "Montpelier", "name": "Vermont Economic Development Authority", "zip": "05602", "url": "http://www.state.vt.us/veda", "address2": null, "shortzip": "5602", "lastupdated": "'2014-02-28", "phone": "(802) 828-5627", "state": "VT", "letter": "v", "address": " 56 East State St", "lat": 44.259248, "lng": -72.572006, "id": "806", "__rowid__": "ygdf1"}, {"city": "Burlington", "name": "Vermont Energy Investment Corporation", "zip": "05401", "url": "http://www.veic.org", "address2": null, "shortzip": "5401", "lastupdated": "'2014-02-28", "phone": "(800) 639-6069", "state": "VT", "letter": "v", "address": "128 Lakeside Avenue", "lat": 44.4617544, "lng": -73.21784749999999, "id": "730", "__rowid__": "10g08o"}, {"city": "So. Burlington", "name": "Vermont Gas Systems", "zip": "05403", "url": "http://www.vermontgas.com", "address2": null, "shortzip": "5403", "lastupdated": "'2014-02-28", "phone": "(802) 863-4511", "state": "VT", "letter": "v", "address": "85 Swift St", "lat": 44.44532, "lng": -73.20459199999999, "id": null, "__rowid__": "yt0iq"}, {"city": "So. Burlington", "name": "Vermont Gynecology", "zip": "05403", "url": "http://www.vtgyn.com", "address2": "Suite 110", "shortzip": "5403", "lastupdated": "'2014-09-03", "phone": "(802) 735-1252", "state": "VT", "letter": "v", "address": "1775 Williston Rd", "lat": 44.4629353, "lng": -73.1556567, "id": null, "__rowid__": "yuf37"}, {"city": "Williston", "name": "Vermont Handcrafters", "zip": "05495", "url": "http://www.vermonthandcrafters.com", "address2": null, "shortzip": "5495", "lastupdated": "'2014-02-28", "phone": "(800) 373-5429", "state": "VT", "letter": "v", "address": "PO Box 1184", "lat": 49.20806169999999, "lng": 16.4538281, "id": "276", "__rowid__": "zqpze"}, {"city": null, "name": "Vermont Health Connect", "zip": "00000", "url": "http://www.healthconnect.vermont.gov", "address2": null, "shortzip": null, "lastupdated": "'2014-02-28", "phone": "(855) 899-9600", "state": null, "letter": "v", "address": null, "lat": 33.5049253, "lng": 134.2689411, "id": "855", "__rowid__": "yvtnk"}, {"city": null, "name": "Vermont Ice Cider Association", "zip": "00000", "url": "http://www.vermonticecider.com", "address2": null, "shortzip": null, "lastupdated": "'2014-02-28", "phone": "(802) 895-2838", "state": null, "letter": "v", "address": null, "lat": 33.5049253, "lng": 134.2689411, "id": "722", "__rowid__": "yne92"}, {"city": "Burlington", "name": "Vermont International Festival", "zip": "05401", "url": "http://www.vermontinternationalfestival.com/", "address2": null, "shortzip": "5401", "lastupdated": "'2014-02-28", "phone": "(802) 863-6713", "state": "VT", "letter": "v", "address": "354 North St", "lat": 44.485041, "lng": -73.20729399999999, "id": null, "__rowid__": "yq7dw"}, {"city": "Montpelier", "name": "Vermont Life Magazine", "zip": "05602", "url": "http://www.vermontlife.com", "address2": "6th floor", "shortzip": "5602", "lastupdated": "'2014-02-28", "phone": "(802) 828-3241", "state": "VT", "letter": "v", "address": "1 National Life ", "lat": 44.2569693, "lng": -72.58374959999999, "id": null, "__rowid__": "yrlyd"}, {"city": "St. Albans", "name": "Vermont Maple Festival", "zip": "05478", "url": "http://www.vtmaplefest.org", "address2": null, "shortzip": "5478", "lastupdated": "'2014-02-28", "phone": "(802) 524-5800", "state": "VT", "letter": "v", "address": null, "lat": 33.5049253, "lng": 134.2689411, "id": "279", "__rowid__": "13g60d"}, {"city": "So. Royalton", "name": "Vermont Maple Sugar Makers", "zip": "05068", "url": "http://www.vermontmaple.org", "address2": null, "shortzip": "5068", "lastupdated": "'2014-02-28", "phone": "(802) 763-7435", "state": "VT", "letter": "v", "address": "491 East Barnard Road", "lat": 43.74786, "lng": -72.550003, "id": null, "__rowid__": "u4gbe"}, {"city": "Montpelier", "name": "Vermont Network Against Domestic & Sexual Violence", "zip": "05602", "url": "http://www.vtnetwork.org", "address2": null, "shortzip": "5602", "lastupdated": "'2014-02-28", "phone": "(802) 223-1302", "state": "VT", "letter": "v", "address": "PO Box 405", "lat": 49.20806169999999, "lng": 16.4538281, "id": "814", "__rowid__": "u5uvv"}, {"city": "Hinesburg", "name": "Vermont Obits.org", "zip": "05461", "url": "http://www.vermontobits.org", "address2": null, "shortzip": "5461", "lastupdated": "'2014-09-03", "phone": "(802) 482-2905", "state": "VT", "letter": "v", "address": "PO Box 340", "lat": 49.20806169999999, "lng": 16.4538281, "id": null, "__rowid__": "u79g8"}, {"city": "Montpelier", "name": "Vermont Parks Forever", "zip": "05601", "url": "http://www.vermontparksforever.org", "address2": null, "shortzip": "5601", "lastupdated": "'2014-10-09", "phone": "(802) 917-1719", "state": "VT", "letter": "v", "address": "PO Box 815", "lat": 49.20806169999999, "lng": 16.4538281, "id": null, "__rowid__": "tyu1q"}, {"city": "Burlington", "name": "Vermont Physical Therapy", "zip": "05401", "url": "http://www.vtphysicaltherapy.com", "address2": null, "shortzip": "5401", "lastupdated": "'2014-09-26", "phone": "(802) 497-0736", "state": "VT", "letter": "v", "address": "266 College St", "lat": 44.47742, "lng": -73.209414, "id": null, "__rowid__": "12e8na"}, {"city": "Essex Junction", "name": "Vermont Quilt Festival", "zip": "05452", "url": "http://www.vqf.org/", "address2": "#207", "shortzip": "5452", "lastupdated": "'2014-02-28", "phone": "(802) 872-0034", "state": "VT", "letter": "v", "address": "11 Pearl St", "lat": 44.491054, "lng": -73.112186, "id": "890", "__rowid__": "u08m7"}, {"city": "Manchester Center", "name": "Vermont Renewable Fuels", "zip": "05255", "url": "http://www.vermontrenewablefuels.com", "address2": null, "shortzip": "5255", "lastupdated": "'2014-02-28", "phone": "(802) 362-3180", "state": "VT", "letter": "v", "address": "444 Barnumville Rd", "lat": 43.1795649, "lng": -73.039917, "id": null, "__rowid__": "u1n6k"}, {"city": "Peachum", "name": "Vermont Sheep & Goat Association", "zip": "05862", "url": "http://vtsheepandgoat.org/", "address2": null, "shortzip": "5862", "lastupdated": "'2014-02-28", "phone": "(802) 223-2456", "state": "VT", "letter": "v", "address": "PO Box 29", "lat": 49.20806169999999, "lng": 16.4538281, "id": null, "__rowid__": "u31r1"}, {"city": "Burlington", "name": "Vermont Stage Company", "zip": "05401", "url": "http://www.vtstage.org/", "address2": "Suite 104", "shortzip": "5401", "lastupdated": "'2014-02-28", "phone": "(802) 862-1497", "state": "VT", "letter": "v", "address": "110 Main St", "lat": 44.476164, "lng": -73.21504999999999, "id": null, "__rowid__": "13erfw"}, {"city": "So. Barre", "name": "Vermont State Lottery", "zip": "05670", "url": "http://www.vtlottery.com", "address2": null, "shortzip": "5670", "lastupdated": "'2014-02-28", "phone": "(800) 322-8800", "state": "VT", "letter": "v", "address": " P.O. Box 420, Rte. 14", "lat": 44.1736743, "lng": -72.50724629999999, "id": null, "__rowid__": "12bfig"}, {"city": "Waterbury", "name": "Vermont State Parks", "zip": "05671", "url": "http://www.vtstateparks.com", "address2": null, "shortzip": "5671", "lastupdated": "'2014-02-28", "phone": "(888) 409-7579", "state": "VT", "letter": "v", "address": "103 So. Main St.", "lat": 44.4758242, "lng": -73.2151403, "id": null, "__rowid__": "ufouq"}, {"city": "Randolph Center", "name": "Vermont Technical College", "zip": "05061", "url": "http://www.vtc.edu/", "address2": null, "shortzip": "5061", "lastupdated": "'2014-02-28", "phone": "(802) 442-8821", "state": "VT", "letter": "v", "address": "PO Box 500", "lat": 49.20806169999999, "lng": 16.4538281, "id": null, "__rowid__": "uh3f7"}, {"city": "Colchester", "name": "Vermont Trophy & Engraving", "zip": "05446", "url": "http://www.vermontawards.com", "address2": null, "shortzip": "5446", "lastupdated": "'2014-02-28", "phone": "(800) 287-6744", "state": "VT", "letter": "v", "address": "566 Hercules Dr", "lat": 44.505742, "lng": -73.174958, "id": null, "__rowid__": "uihzk"}, {"city": "Waterbury", "name": "Vermont Vocational Rehabilitation", "zip": "05671", "url": "http://www.vocrehab.vermont.gov/", "address2": null, "shortzip": "5671", "lastupdated": "'2014-02-28", "phone": "(866) 879-6757", "state": "VT", "letter": "v", "address": "103 So. Main St., Osgood II Building", "lat": 40.3396845, "lng": -84.49146379999999, "id": null, "__rowid__": "134xh1"}, {"city": "Worchester", "name": "Vermont Window Restoration", "zip": "05682", "url": "http://www.vermontwindow.squarespace.com", "address2": null, "shortzip": "5682", "lastupdated": "'2014-08-20", "phone": "(802) 279-7824", "state": "VT", "letter": "v", "address": "223 Calais Rd", "lat": 44.382008, "lng": -72.534241, "id": null, "__rowid__": "ujwk1"}, {"city": "Rutland", "name": "Vibe Portrait", "zip": "05701", "url": "http://www.vibeportraitart.com", "address2": null, "shortzip": "5701", "lastupdated": "'2014-08-20", "phone": "(802) 773-8480", "state": "VT", "letter": "v", "address": "22 Washington", "lat": 43.605671, "lng": -72.9740829, "id": null, "__rowid__": "13olev"}, {"city": "Montpelier", "name": "Visiting Nurse Home Health and Hospice Service", "zip": "05602", "url": "http://www.vnavt.com/", "address2": null, "shortzip": "5602", "lastupdated": "'2014-03-18", "phone": "(802) 229-0579", "state": "VT", "letter": "v", "address": "10 Main St", "lat": 44.259208, "lng": -72.577271, "id": null, "__rowid__": "z5nh7"}, {"city": "Springfield", "name": "Von Bargen's Jewelers", "zip": "05156", "url": "http://www.vonbargensjewelry.com", "address2": null, "shortzip": "5156", "lastupdated": "'2014-02-28", "phone": "(800) 841-8820", "state": "VT", "letter": "v", "address": " 8 Summer St", "lat": 43.2986153, "lng": -72.48161019999999, "id": null, "__rowid__": "ua2l2"}, {"city": "Shelburne", "name": "Wake Robin", "zip": "05482", "url": "http://www.wakerobin.com/", "address2": null, "shortzip": "5482", "lastupdated": "'2014-02-28", "phone": "(802) 264-5103", "state": "VT", "letter": "w", "address": "200 Wake Robin Drive", "lat": 44.3552782, "lng": -73.2484674, "id": null, "__rowid__": "12igcl"}, {"city": "Stowe", "name": "West Branch Gallery", "zip": "05672", "url": "http://www.westbranchgallery.com/", "address2": null, "shortzip": "5672", "lastupdated": "'2014-02-28", "phone": "(802) 253-8943", "state": "VT", "letter": "w", "address": "17 Town Farm Lane", "lat": 44.475789, "lng": -72.701891, "id": null, "__rowid__": "ubh5j"}, {"city": "Weston", "name": "Weston Craft Show", "zip": "05161", "url": "http://www.westoncraftshow.com", "address2": null, "shortzip": "5161", "lastupdated": "'2014-02-28", "phone": null, "state": "VT", "letter": "w", "address": null, "lat": 33.5049253, "lng": 134.2689411, "id": null, "__rowid__": "z2ucd"}, {"city": "Weston", "name": "Weston Playhouse", "zip": "05161", "url": "http://www.westonplayhouse.org", "address2": null, "shortzip": "5161", "lastupdated": "'2014-02-28", "phone": "(802) 824-5288", "state": "VT", "letter": "w", "address": " 703 Main St.", "lat": 43.29308580000001, "lng": -72.7903851, "id": null, "__rowid__": "ucvpw"}, {"city": "White River Junction", "name": "White River Indie Films", "zip": "05001", "url": "http://www.wrif.org", "address2": null, "shortzip": "5001", "lastupdated": "'2014-02-28", "phone": "(802) 478-0191", "state": "VT", "letter": "w", "address": "56 No. Main St.", "lat": 43.6496341, "lng": -72.3212561, "id": null, "__rowid__": "ueaad"}, {"city": "Colchester", "name": "Wiemann Lamphere Architects", "zip": "05446", "url": "http://wiemannlamphere.com/", "address2": null, "shortzip": "5446", "lastupdated": "'2014-02-28", "phone": "(802) 655-5020", "state": "VT", "letter": "w", "address": "525 Hercules Dr", "lat": 44.5066893, "lng": -73.1741991, "id": null, "__rowid__": "uqxe2"}, {"city": "Manchester Village", "name": "Wilburton Inn", "zip": "05254", "url": "http://www.wilburtoninn.com", "address2": null, "shortzip": "5254", "lastupdated": "'2014-09-26", "phone": "(802) 362-2500", "state": "VT", "letter": "w", "address": "257 Wilburton Drive", "lat": 43.1475994, "lng": -73.06376709999999, "id": null, "__rowid__": "usbyj"}, {"city": "Bennington", "name": "Winburn Law Offices", "zip": "05201", "url": "http://www.winburnlaw.com", "address2": null, "shortzip": "5201", "lastupdated": "'2014-02-28", "phone": "(802) 447-0100", "state": "VT", "letter": "w", "address": "409 Main St", "lat": 42.87799800000001, "lng": -73.196716, "id": null, "__rowid__": "utqiw"}, {"city": "Grafton", "name": "Windham Foundation", "zip": "05146", "url": "http://www.windham-foundation.org/", "address2": null, "shortzip": "5146", "lastupdated": "'2014-02-28", "phone": "(802) 843-2211", "state": "VT", "letter": "w", "address": "225 Townshend Rd", "lat": 43.16957499999999, "lng": -72.61039699999999, "id": null, "__rowid__": "uv53d"}, {"city": "Winooski", "name": "Winooski Coalition", "zip": "05404", "url": "http://wcspc.blogspot.com/", "address2": null, "shortzip": "5404", "lastupdated": "'2014-04-10", "phone": "(802) 655-4565", "state": "VT", "letter": "w", "address": "32 Mallets Bay Ave", "lat": 44.492145, "lng": -73.19081299999999, "id": null, "__rowid__": "ulb4e"}, {"city": "Fayston", "name": "Wooden Spoon Creative Catering", "zip": "05673", "url": "http://www.woodenspoon-vt.com/", "address2": null, "shortzip": "5673", "lastupdated": "'2014-02-28", "phone": "(802) 793-2415", "state": "VT", "letter": "w", "address": "641 Bragg Hill Road", "lat": 44.188751, "lng": -72.84728199999999, "id": null, "__rowid__": "umpov"}, {"city": "Putney", "name": "Yellow Barn", "zip": "05346", "url": "http://www.yellowbarn.org", "address2": null, "shortzip": "5346", "lastupdated": "'2014-06-23", "phone": "(802) 387-6637", "state": "VT", "letter": "y", "address": "63 Main S", "lat": 42.9712155, "lng": -72.52230159999999, "id": null, "__rowid__": "1324c7"}, {"city": "Middlesex", "name": "Zoombikes", "zip": "05602", "url": "http://www.zoombikes.net", "address2": null, "shortzip": "5602", "lastupdated": "'2014-02-28", "phone": "(802) 272-0425", "state": "VT", "letter": "z", "address": "US Route 2", "lat": 44.2750306, "lng": -72.6403394, "id": null, "__rowid__": "uo498"}]